ID,name,main_category,currency,usd_goal_real,usd_pledged_real,location,backers,num.backers.tier,pledge.tier,lat,long
0,Exploding Kittens,Tabletop Games,USD,10000.0,8782571.0,"Los Angeles, CA",219382,"[15505, 202934, 200, 5]","[20.0, 35.0, 100.0, 500.0]",33.973093,-118.247896
1,Fidget Cube: A Vinyl Desk Toy,Product Design,USD,15000.0,6465690.0,"Denver, CO",154926,"[788, 250, 43073, 21796, 41727, 21627, 12215, 7608, 3290, 2189, 82, 85]","[1.0, 14.0, 19.0, 19.0, 35.0, 35.0, 79.0, 79.0, 129.0, 129.0, 849.0, 849.0]",39.746931,-105.062036
2,"Bring Reading Rainbow Back for Every Child, Everywhere!",Web,USD,1000000.0,5408916.0,"Los Angeles, CA",105857,"[19639, 14343, 9136, 2259, 5666, 24512, 4957, 4359, 749, 1248, 500, 339, 282, 417, 1548, 517, 749, 155, 160, 60, 5, 10, 3, 100, 75, 12, 295, 69, 156, 1, 33, 1, 1, 8, 6, 30, 13, 39, 1, 4, 6, 21, 9, 3, 23, 11, 12, 20, 14, 11, 4, 14, 36, 10, 1, 1, 10, 2, 2, 8, 13, 10, 1, 1]","[5.0, 10.0, 25.0, 30.0, 35.0, 50.0, 75.0, 100.0, 110.0, 125.0, 140.0, 145.0, 150.0, 175.0, 200.0, 200.0, 250.0, 250.0, 275.0, 300.0, 300.0, 300.0, 300.0, 350.0, 350.0, 350.0, 375.0, 375.0, 400.0, 400.0, 400.0, 450.0, 500.0, 500.0, 500.0, 600.0, 700.0, 750.0, 750.0, 750.0, 750.0, 750.0, 750.0, 800.0, 800.0, 800.0, 800.0, 800.0, 800.0, 900.0, 1200.0, 1500.0, 1700.0, 2500.0, 2600.0, 3000.0, 3500.0, 3500.0, 3500.0, 3750.0, 5000.0, 10000.0, 10000.0, 10000.0]",33.973093,-118.247896
3,The Veronica Mars Movie Project,Narrative Film,USD,2000000.0,5702153.0,"San Diego, CA",91585,"[5938, 8423, 11509, 22997, 23227, 1865, 7260, 152, 150, 1478, 3048, 100, 891, 91, 100, 135, 40, 100, 50, 150, 150, 50, 100, 100, 100, 20, 30, 10, 4, 3, 3, 1]","[1.0, 10.0, 25.0, 35.0, 50.0, 75.0, 100.0, 150.0, 150.0, 175.0, 200.0, 250.0, 275.0, 350.0, 400.0, 400.0, 450.0, 500.0, 600.0, 750.0, 750.0, 750.0, 1000.0, 1000.0, 1000.0, 2500.0, 3000.0, 3500.0, 5000.0, 6500.0, 8000.0, 10000.0]",32.71852,-117.159316
4,Double Fine Adventure,Video Games,USD,400000.0,3336371.0,"San Francisco, CA",87142,"[47946, 24636, 1090, 11530, 900, 148, 100, 10, 4]","[15.0, 30.0, 60.0, 100.0, 250.0, 500.0, 1000.0, 5000.0, 10000.0]",37.621944,-122.381944
5,"Pebble Time - Awesome Smartwatch, No Compromises",Product Design,USD,500000.0,20338986.0,"Palo Alto, CA",78471,"[10000, 22991, 5278, 19999, 6041, 4717, 4998, 2500, 451, 237, 82, 142]","[159.0, 179.0, 179.0, 250.0, 250.0, 338.0, 400.0, 480.0, 480.0, 845.0, 1690.0, 5000.0]",37.444324,-122.149685
6,Torment: Tides of Numenera,Video Games,USD,900000.0,4188927.0,"Newport Beach, CA",74405,"[317, 14992, 11711, 10995, 4303, 3503, 10271, 2987, 1219, 2315, 2203, 1000, 2000, 998, 1839, 927, 383, 499, 889, 144, 300, 156, 53, 50, 13, 9, 3, 9]","[5.0, 20.0, 25.0, 28.0, 35.0, 39.0, 45.0, 50.0, 65.0, 75.0, 80.0, 95.0, 110.0, 125.0, 125.0, 130.0, 135.0, 250.0, 275.0, 350.0, 500.0, 525.0, 750.0, 1000.0, 1000.0, 2000.0, 5000.0, 10000.0]",33.6398,-117.8643
7,Pillars of Eternity (formerly Project Eternity),Video Games,USD,1100000.0,3986929.0,"Irvine, CA",73986,"[317, 25000, 20921, 8394, 5727, 3818, 769, 1041, 792, 3496, 972, 1746, 30, 367, 29, 114, 49, 7, 5, 3, 5]","[5.0, 20.0, 25.0, 35.0, 50.0, 65.0, 80.0, 100.0, 110.0, 140.0, 165.0, 250.0, 350.0, 500.0, 750.0, 1000.0, 1000.0, 3000.0, 5000.0, 5000.0, 10000.0]",33.7357,-117.7672
11,Pebble: E-Paper Watch for iPhone and Android,Product Design,USD,100000.0,10266845.0,"Palo Alto, CA",68929,"[2615, 200, 40799, 14350, 3800, 100, 4925, 900, 482, 20, 31]","[1.0, 99.0, 115.0, 125.0, 220.0, 235.0, 240.0, 550.0, 1000.0, 1250.0, 10000.0]",37.444324,-122.149685
13,"Pebble 2, Time 2 + All-New Pebble Core",Product Design,USD,1000000.0,12779843.0,"Redwood City, CA",66673,"[5000, 2798, 8546, 234, 679, 9996, 2042, 13446, 4208, 916, 1408, 8260, 2521, 1150, 415, 231, 741, 287, 2342, 779]","[69.0, 79.0, 99.0, 109.0, 149.0, 169.0, 169.0, 179.0, 179.0, 199.0, 199.0, 229.0, 229.0, 269.0, 269.0, 298.0, 337.0, 337.0, 339.0, 339.0]",37.464661,-122.230406
15,Joking Hazard,Tabletop Games,USD,10000.0,3246588.0,"Dallas, TX",63758,"[435, 6491, 26903, 18140, 7395, 1841, 1279, 1, 1, 1, 1, 1, 1, 1, 1, 1, 1, 1, 42, 1047, 9]","[1.0, 25.0, 35.0, 45.0, 60.0, 75.0, 100.0, 102.0, 104.0, 106.0, 106.0, 107.0, 108.0, 109.0, 111.0, 120.0, 123.0, 133.0, 200.0, 200.0, 1000.0]",32.790439,-96.80439
16,OUYA: A New Kind of Video Game Console,Gaming Hardware,USD,950000.0,8596474.0,"Los Angeles, CA",63416,"[1770, 1898, 1000, 46124, 7755, 2500, 600, 226, 4, 12]","[10.0, 25.0, 95.0, 99.0, 140.0, 225.0, 699.0, 1337.0, 5000.0, 10000.0]",33.973093,-118.247896
17,COOLEST COOLER: 21st Century Cooler that's Actually Cooler,Product Design,USD,50000.0,13285226.0,"Portland, OR",62642,"[1078, 311, 133, 50, 20, 50213, 7063, 2455, 31, 304, 8]","[5.0, 25.0, 55.0, 165.0, 165.0, 185.0, 185.0, 225.0, 500.0, 1750.0, 2000.0]",45.443343,-122.775974
18,Wasteland 2,Video Games,USD,900000.0,2933252.0,"Newport Beach, CA",61290,"[32778, 8828, 7967, 2274, 1130, 5218, 776, 407, 1200, 172, 147, 2, 13, 9, 12]","[15.0, 30.0, 50.0, 55.0, 75.0, 100.0, 150.0, 150.0, 250.0, 500.0, 1000.0, 2000.0, 2500.0, 5000.0, 10000.0]",33.6398,-117.8643
19,Bring Back MYSTERY SCIENCE THEATER 3000,Television,USD,2000000.0,5764229.0,"Minneapolis, MN",48270,"[5319, 3024, 5269, 7452, 1649, 3543, 11148, 8, 2, 1726, 4079, 690, 1781, 130, 14, 28, 115, 2, 1, 48, 70, 48, 108, 113, 14, 11, 1, 2, 1, 4, 18, 0, 15, 2, 10, 4, 3, 1, 11, 3, 5]","[10.0, 25.0, 35.0, 50.0, 75.0, 85.0, 100.0, 100.0, 125.0, 150.0, 200.0, 250.0, 300.0, 400.0, 498.0, 499.0, 500.0, 750.0, 750.0, 751.0, 752.0, 872.0, 1000.0, 1000.0, 1500.0, 2001.0, 2500.0, 3000.0, 3500.0, 4000.0, 5000.0, 5000.0, 6000.0, 6500.0, 7500.0, 8000.0, 8000.0, 9999.0, 10000.0, 15000.0, 25000.0]",44.983473,-93.268251
20,WISH I WAS HERE,Narrative Film,USD,2000000.0,3105473.0,"Los Angeles, CA",46520,"[9133, 6208, 5706, 9952, 2952, 254, 449, 500, 396, 614, 2, 158, 172, 280, 1000, 120, 150, 229, 55, 557, 600, 710, 400, 389, 301, 330, 325, 175, 160, 215, 75, 99, 135, 36, 69, 117, 25, 25, 15, 25, 14, 22, 25, 25, 17, 19, 25, 48, 49, 75, 75, 22, 19, 18, 5, 4, 1, 9, 2, 3, 1, 1]","[10.0, 20.0, 30.0, 40.0, 60.0, 75.0, 100.0, 100.0, 100.0, 100.0, 100.0, 100.0, 100.0, 100.0, 100.0, 100.0, 100.0, 100.0, 100.0, 125.0, 150.0, 175.0, 200.0, 200.0, 200.0, 200.0, 200.0, 200.0, 200.0, 200.0, 200.0, 200.0, 200.0, 200.0, 250.0, 500.0, 600.0, 600.0, 600.0, 600.0, 600.0, 600.0, 600.0, 600.0, 600.0, 600.0, 600.0, 750.0, 750.0, 1000.0, 1000.0, 1500.0, 2500.0, 3000.0, 5000.0, 5000.0, 7000.0, 7500.0, 8000.0, 9000.0, 10000.0, 10000.0]",33.973093,-118.247896
21,The World's Best TRAVEL JACKET with 15 Features || BAUBAX,Product Design,USD,20000.0,9192055.0,"Chicago, IL",44949,"[319, 334, 100, 200, 970, 50, 1735, 1824, 3559, 630, 3100, 6200, 1168, 2256, 4107, 1249, 827, 25, 50, 865, 325, 1940, 1120, 673, 5185, 1903, 287, 80, 10, 220, 154, 808, 430, 50, 610, 404, 328, 155, 100, 145, 97, 70, 61]","[5.0, 25.0, 89.0, 99.0, 99.0, 109.0, 109.0, 109.0, 119.0, 119.0, 119.0, 129.0, 129.0, 129.0, 139.0, 149.0, 159.0, 178.0, 188.0, 208.0, 228.0, 229.0, 238.0, 248.0, 249.0, 269.0, 279.0, 337.0, 347.0, 349.0, 367.0, 369.0, 389.0, 417.0, 449.0, 459.0, 479.0, 559.0, 599.0, 669.0, 719.0, 1099.0, 1199.0]",41.885847,-87.618123
22,Planetary Annihilation - A Next Generation RTS,Video Games,USD,900000.0,2229344.0,"Kirkland, WA",44162,"[5000, 18720, 5513, 6462, 1543, 1000, 3908, 116, 977, 380, 118, 91, 6, 5]","[15.0, 20.0, 40.0, 50.0, 90.0, 95.0, 100.0, 140.0, 150.0, 250.0, 500.0, 1000.0, 5000.0, 10000.0]",47.678597,-122.189442
23,Divinity: Original Sin 2,Video Games,USD,500000.0,2032434.0,"Sacramento, CA",42713,"[103, 10000, 10000, 3954, 3407, 675, 4109, 4664, 347, 144, 217, 805, 243, 189, 223, 83, 2168, 373, 49, 61, 200, 78, 179, 100, 28, 49, 24, 20, 12, 10, 13, 10, 11, 12, 0, 1, 2]","[5.0, 25.0, 26.0, 27.0, 30.0, 40.0, 50.0, 50.0, 60.0, 60.0, 80.0, 90.0, 90.0, 100.0, 100.0, 100.0, 125.0, 125.0, 130.0, 190.0, 200.0, 200.0, 205.0, 300.0, 310.0, 350.0, 400.0, 500.0, 550.0, 650.0, 700.0, 750.0, 800.0, 1000.0, 2500.0, 5000.0, 10000.0]",38.5816,-121.4933
24,BATTLETECH - Tactical 'Mech Combat Returns to the PC.,Video Games,USD,250000.0,2785537.0,"Kirkland, WA",41733,"[574, 18594, 2666, 12114, 2266, 3219, 2140, 52, 50, 5, 2, 2, 2, 1]","[1.0, 25.0, 35.0, 50.0, 85.0, 125.0, 275.0, 1000.0, 2000.0, 4000.0, 4000.0, 10000.0, 10000.0, 10000.0]",47.678597,-122.189442
25,CHIP - The World's First Nine Dollar Computer,Hardware,USD,50000.0,2071927.0,"Oakland, CA",39560,"[5000, 5000, 3996, 627, 1272, 2624, 6200, 3297, 3261, 3281, 3000, 670, 1000, 34]","[9.0, 9.0, 9.0, 9.0, 19.0, 19.0, 24.0, 49.0, 64.0, 93.0, 93.0, 98.0, 150.0, 489.0]",37.780595,-122.216587
26,"PINE A64, First $15 64-Bit Single Board Super Computer",Hardware,USD,31416.0,1731465.0,"San Francisco, CA",36781,"[144, 66, 10, 1000, 2555, 159, 15, 300, 1000, 5000, 3247, 1000, 13647, 1465, 2197, 4777, 11, 57, 2]","[1.0, 5.0, 5.0, 15.0, 15.0, 15.0, 16.0, 19.0, 19.0, 19.0, 19.0, 29.0, 29.0, 59.0, 59.0, 89.0, 399.0, 499.0, 5000.0]",37.621944,-122.381944
27,Shadowrun Returns,Video Games,USD,400000.0,1836447.0,"Bellevue, WA",36276,"[15502, 8478, 1397, 4378, 1128, 4247, 379, 417, 100, 41, 12, 0, 0, 3]","[15.0, 30.0, 50.0, 60.0, 100.0, 125.0, 175.0, 250.0, 500.0, 1000.0, 2500.0, 5000.0, 7500.0, 10000.0]",47.619899,-122.207371
29,Secret Hitler,Tabletop Games,USD,54450.0,1479046.0,"Chicago, IL",34565,"[8352, 12447, 3368, 10120, 71, 58, 20, 6]","[25.0, 30.0, 37.0, 42.0, 90.0, 150.0, 225.0, 300.0]",41.885847,-87.618123
30,Star Citizen,Video Games,USD,500000.0,2134374.0,"Los Angeles, CA",34397,"[2697, 163, 5000, 5000, 3000, 4966, 2010, 3541, 2278, 627, 220, 163, 259, 82, 1041, 1453, 1509, 115, 22, 3, 1, 1]","[5.0, 10.0, 30.0, 30.0, 35.0, 37.0, 40.0, 60.0, 60.0, 60.0, 110.0, 110.0, 110.0, 120.0, 125.0, 125.0, 250.0, 500.0, 1000.0, 2500.0, 5000.0, 10000.0]",33.973093,-118.247896
31,The Bard's Tale IV,Video Games,USD,1250000.0,1519680.0,"Newport Beach, CA",33741,"[74, 14999, 7786, 304, 503, 481, 674, 2445, 1199, 347, 552, 365, 1999, 138, 1033, 194, 78, 88, 113, 8, 16, 37, 96, 21, 12, 4, 5, 6, 3, 4, 5]","[5.0, 20.0, 25.0, 27.0, 30.0, 33.0, 40.0, 50.0, 55.0, 65.0, 70.0, 75.0, 95.0, 105.0, 105.0, 135.0, 185.0, 200.0, 230.0, 350.0, 400.0, 550.0, 650.0, 675.0, 750.0, 750.0, 1000.0, 1200.0, 2000.0, 5000.0, 10000.0]",33.6398,-117.8643
32,Double Fine's MASSIVE CHALICE,Video Games,USD,725000.0,1229015.0,"San Francisco, CA",31774,"[20286, 2548, 5143, 518, 1239, 913, 581, 194, 9, 4, 4]","[20.0, 35.0, 50.0, 75.0, 100.0, 100.0, 150.0, 250.0, 1000.0, 5000.0, 10000.0]",37.621944,-122.381944
33,Shadowrun: Hong Kong,Video Games,USD,100000.0,1204726.0,"Kirkland, WA",31497,"[153, 19689, 2497, 3291, 1, 1683, 598, 1073, 186, 1183, 262, 714, 80, 43, 8, 1]","[1.0, 15.0, 25.0, 35.0, 35.0, 55.0, 65.0, 75.0, 100.0, 150.0, 180.0, 225.0, 500.0, 1000.0, 2500.0, 10000.0]",47.678597,-122.189442
35,"Million Dollars, But... The Game",Tabletop Games,USD,10000.0,1353024.0,"Austin, TX",30546,"[2392, 1669, 15146, 6508, 46, 95, 259, 317, 2559, 497, 252, 600, 10]","[25.0, 25.0, 35.0, 35.0, 45.0, 45.0, 65.0, 65.0, 75.0, 75.0, 100.0, 150.0, 2500.0]",30.505972,-97.747187
36,Pressy - the Almighty Android Button!,Product Design,USD,40000.0,695138.0,"New York, NY",28818,"[79, 23, 300, 5961, 1678, 1255, 14358, 3553, 1135, 289, 1]","[5.0, 12.0, 15.0, 17.0, 20.0, 20.0, 20.0, 25.0, 35.0, 45.0, 1000.0]",40.74838,-73.996705
37,Xpand\xae Lacing System: Shoelaces Redesigned,Product Design,USD,10000.0,851108.0,"Anacortes, WA",28274,"[68, 1445, 13230, 666, 8704, 385, 3509, 238]","[1.0, 8.0, 17.0, 19.0, 30.0, 33.0, 45.0, 90.0]",48.500438,-122.630873
39,3Doodler: The World's First 3D Printing Pen,Hardware,USD,30000.0,2344134.0,"Boston, MA",26457,"[1053, 15, 100, 2499, 3498, 2000, 2400, 1339, 2500, 3500, 1999, 3599, 1698, 85, 10, 10, 4, 1]","[1.0, 25.0, 50.0, 75.0, 75.0, 75.0, 75.0, 75.0, 99.0, 99.0, 99.0, 99.0, 99.0, 125.0, 220.0, 220.0, 1000.0, 10000.0]",42.357603,-71.068432
40,"The Everyday Backpack, Tote, and Sling",Product Design,USD,500000.0,6565782.0,"San Francisco, CA",26359,"[2967, 367, 2076, 187, 10011, 1627, 5422, 881, 181, 88, 805, 693, 387, 353]","[115.0, 125.0, 145.0, 155.0, 189.0, 199.0, 219.0, 229.0, 295.0, 325.0, 365.0, 395.0, 449.0, 479.0]",37.621944,-122.381944
42,"Theatre Is Evil: the album, art book and tour",Music,USD,100000.0,1192793.0,"Boston, MA",24883,"[4744, 6356, 9333, 1347, 488, 1603, 65, 5, 298, 50, 88, 74, 83, 46, 50, 6, 38, 6, 28, 72, 4, 34, 2, 0]","[1.0, 5.0, 25.0, 50.0, 100.0, 125.0, 250.0, 250.0, 300.0, 300.0, 300.0, 300.0, 300.0, 300.0, 300.0, 300.0, 500.0, 500.0, 1000.0, 1000.0, 1000.0, 5000.0, 10000.0, 10000.0]",42.357603,-71.068432
43,Homestuck Adventure Game,Video Games,USD,700000.0,2485506.0,"Miami, FL",24346,"[7329, 4559, 1838, 743, 1693, 1458, 268, 491, 1731, 144, 215, 44, 463, 116, 400, 131, 699, 40, 104, 440, 267, 48, 612, 132, 2, 2]","[15.0, 25.0, 55.0, 80.0, 105.0, 105.0, 105.0, 130.0, 155.0, 180.0, 180.0, 180.0, 205.0, 205.0, 230.0, 255.0, 255.0, 330.0, 380.0, 380.0, 405.0, 505.0, 605.0, 1000.0, 5000.0, 10000.0]",25.779,-80.1982
44,Hyper Light Drifter,Video Games,USD,27000.0,645158.0,"Los Angeles, CA",24150,"[8431, 5641, 1708, 2596, 3300, 200, 184, 418, 700, 100, 245, 99, 50, 136, 59, 1, 50, 5, 11, 5, 8, 7, 1]","[10.0, 15.0, 20.0, 25.0, 40.0, 60.0, 62.0, 64.0, 75.0, 100.0, 109.0, 110.0, 115.0, 120.0, 150.0, 200.0, 225.0, 250.0, 350.0, 500.0, 600.0, 1000.0, 1400.0]",33.973093,-118.247896
45,Blue Mountain State: The Movie,Narrative Film,USD,1500000.0,1911827.0,"Los Angeles, CA",23999,"[950, 979, 4590, 1042, 318, 344, 836, 9596, 97, 477, 3097, 528, 181, 264, 119, 93, 43, 9, 5, 14, 1, 5, 9, 1, 0, 2, 10, 9]","[1.0, 10.0, 20.0, 25.0, 30.0, 35.0, 40.0, 50.0, 65.0, 75.0, 100.0, 200.0, 300.0, 500.0, 750.0, 750.0, 750.0, 1000.0, 1001.0, 1500.0, 2500.0, 3000.0, 3500.0, 5000.0, 6500.0, 8000.0, 10000.0, 10000.0]",33.973093,-118.247896
46,Passion Planner: The One Place for All Your Thoughts,Product Design,USD,10000.0,658434.0,"San Diego, CA",23626,"[3438, 5745, 50, 28, 75, 150, 2, 250, 27, 550, 2169, 300, 99, 1410, 1627, 100, 200, 2, 954, 250, 1, 499, 500, 421, 200, 300, 699, 150, 150, 300, 350, 110, 205, 200, 422, 75, 100, 200, 200, 100, 196, 106, 30, 20, 72, 45, 20, 74, 118, 25, 50, 30, 20, 20, 16, 10, 19, 10, 14, 10, 9, 15, 36]","[1.0, 1.0, 20.0, 23.0, 23.0, 23.0, 25.0, 25.0, 25.0, 25.0, 25.0, 25.0, 25.0, 25.0, 25.0, 30.0, 30.0, 30.0, 30.0, 35.0, 35.0, 35.0, 35.0, 35.0, 35.0, 40.0, 40.0, 50.0, 50.0, 50.0, 50.0, 50.0, 50.0, 55.0, 55.0, 60.0, 60.0, 60.0, 60.0, 60.0, 60.0, 70.0, 75.0, 75.0, 75.0, 75.0, 80.0, 80.0, 80.0, 100.0, 100.0, 100.0, 120.0, 120.0, 120.0, 140.0, 140.0, 160.0, 160.0, 180.0, 180.0, 200.0, 200.0]",32.71852,-117.159316
47,LightSail: A Revolutionary Solar Sailing Spacecraft,Space Exploration,USD,200000.0,1241615.0,"Pasadena, CA",23331,"[2149, 2528, 1320, 1272, 1663, 351, 5519, 385, 308, 50, 713, 1744, 235, 93, 299, 60, 1483, 393, 17, 228, 104, 550, 200, 50, 51, 53, 37, 40, 308, 26, 15, 118, 57, 236, 37, 25, 43, 67, 61, 2, 10, 3, 2]","[1.0, 5.0, 15.0, 20.0, 25.0, 25.0, 35.0, 35.0, 35.0, 35.0, 45.0, 50.0, 50.0, 50.0, 50.0, 50.0, 55.0, 55.0, 75.0, 75.0, 75.0, 80.0, 100.0, 100.0, 100.0, 100.0, 100.0, 100.0, 150.0, 150.0, 150.0, 160.0, 175.0, 185.0, 375.0, 375.0, 500.0, 500.0, 1000.0, 1000.0, 1500.0, 5000.0, 10000.0]",34.146762,-118.139119
48,Stonehearth,Video Games,USD,120000.0,751920.0,"San Jose, CA",22844,"[90, 6499, 735, 9942, 1440, 3316, 214, 342, 65, 24, 9, 20, 3, 4, 2]","[5.0, 15.0, 25.0, 30.0, 45.0, 50.0, 75.0, 100.0, 150.0, 250.0, 500.0, 525.0, 1000.0, 2000.0, 5000.0]",37.3894,-121.8868
49,Massive Darkness,Tabletop Games,USD,200000.0,3560642.0,"Atlanta, GA",22361,"[1820, 18505]","[110.0, 120.0]",33.7564,-84.3918
50,Shroud of the Avatar: Forsaken Virtues,Video Games,USD,1000000.0,1919275.0,"Austin, TX",22322,"[88, 4989, 4990, 2513, 865, 1063, 1747, 53, 1575, 358, 669, 803, 1217, 156, 133, 60, 66, 373, 207, 68, 20, 17, 5, 9, 2]","[10.0, 25.0, 30.0, 33.0, 40.0, 50.0, 60.0, 80.0, 80.0, 100.0, 120.0, 125.0, 150.0, 200.0, 250.0, 350.0, 400.0, 500.0, 750.0, 1500.0, 3000.0, 3500.0, 5000.0, 10000.0, 10000.0]",30.505972,-97.747187
51,Obduction,Video Games,USD,1100000.0,1321306.0,"Spokane, WA",22195,"[559, 11890, 4652, 3075, 896, 783, 114, 37, 30, 25, 8, 5]","[1.0, 25.0, 45.0, 75.0, 120.0, 250.0, 425.0, 850.0, 850.0, 1100.0, 4500.0, 10000.0]",47.666485,-117.436527
54,Radiotopia: A Storytelling Revolution,Radio &amp; Podcasts,USD,250000.0,620412.0,"Cambridge, MA",21808,"[5139, 1476, 1974, 1354, 35, 287, 1299, 694, 125, 146, 19, 166, 197, 966, 849, 525, 257, 101, 5, 4, 7, 6, 7, 6, 14, 3, 3, 7, 1, 1, 5, 2, 1]","[5.0, 10.0, 15.0, 25.0, 40.0, 40.0, 45.0, 45.0, 50.0, 50.0, 50.0, 50.0, 50.0, 50.0, 65.0, 100.0, 110.0, 150.0, 200.0, 250.0, 300.0, 300.0, 350.0, 500.0, 550.0, 1000.0, 1000.0, 1500.0, 1500.0, 1750.0, 3500.0, 5000.0, 10000.0]",42.377045,-71.125611
55,System Shock,Video Games,USD,900000.0,1350700.0,"Vancouver, WA",21625,"[408, 300, 11744, 4064, 1837, 372, 2434, 130, 94, 20, 12, 5, 1, 7, 3]","[5.0, 25.0, 30.0, 50.0, 75.0, 100.0, 150.0, 350.0, 500.0, 750.0, 1000.0, 2000.0, 3000.0, 5000.0, 10000.0]",45.64183,-122.68014
56,Bunch O Balloons: 100 Water Balloons in Less Than 1 Minute,Product Design,USD,10000.0,929160.0,"Plano, TX",21455,"[100, 150, 2500, 3500, 3677, 50, 100, 1500, 2500, 2328, 50, 100, 750, 1000, 1175, 10, 20, 200, 500, 381, 10, 50, 150, 119, 12, 132]","[15.0, 15.0, 15.0, 16.0, 17.0, 30.0, 30.0, 30.0, 32.0, 34.0, 60.0, 60.0, 60.0, 65.0, 70.0, 120.0, 120.0, 120.0, 130.0, 140.0, 240.0, 240.0, 260.0, 280.0, 480.0, 480.0]",33.054972,-96.736454
57,PowerUp 3.0 - Smartphone Controlled Paper Airplane,Flight,USD,50000.0,1232612.0,"New York, NY",21412,"[393, 213, 299, 3741, 10687, 5042, 759, 50, 42, 20]","[1.0, 5.0, 30.0, 30.0, 40.0, 75.0, 99.0, 250.0, 299.0, 500.0]",40.74838,-73.996705
58,Zombicide: Black Plague,Tabletop Games,USD,125000.0,4079204.0,"Atlanta, GA",20915,"[1026, 900, 18085]","[100.0, 140.0, 150.0]",33.7564,-84.3918
60,Planet Money T-shirt,Radio &amp; Podcasts,USD,50000.0,590807.0,"New York, NY",20242,[20159],[25.0],40.74838,-73.996705
61,The Banner Saga,Video Games,USD,100000.0,723886.0,"Austin, TX",20042,"[35, 9028, 4710, 2735, 1850, 513, 680, 241, 47, 17, 50, 17, 10, 7, 0, 3, 1]","[5.0, 10.0, 25.0, 50.0, 50.0, 80.0, 100.0, 150.0, 250.0, 350.0, 600.0, 800.0, 1200.0, 2500.0, 4500.0, 5000.0, 10000.0]",30.505972,-97.747187
62,WARMACHINE: TACTICS,Video Games,USD,550000.0,1578950.0,"Bellevue, WA",19829,"[169, 6954, 910, 740, 4500, 667, 300, 1260, 1234, 726, 1686, 617, 29, 0, 3]","[1.0, 20.0, 25.0, 35.0, 40.0, 45.0, 55.0, 65.0, 85.0, 145.0, 205.0, 350.0, 650.0, 3000.0, 5000.0]",47.619899,-122.207371
65,Sense: Know More. Sleep Better.,Technology,USD,100000.0,2410741.0,"San Francisco, CA",19349,"[415, 50, 2, 9555, 8416, 178, 237, 113, 250, 10, 10, 4]","[1.0, 25.0, 50.0, 99.0, 129.0, 149.0, 189.0, 249.0, 399.0, 639.0, 1000.0, 5000.0]",37.621944,-122.381944
66,SnapPower Charger: Add USB ports to your wall with no wiring,Technology,USD,35000.0,839301.0,"Orem, UT",18604,"[500, 600, 1310, 700, 2400, 1000, 2650, 2000, 2036, 700, 1500, 1626, 300, 500, 670]","[12.0, 14.0, 16.0, 20.0, 24.0, 30.0, 30.0, 36.0, 42.0, 50.0, 55.0, 65.0, 100.0, 110.0, 120.0]",40.313407,-111.695293
67,Shantae: Half-Genie Hero,Video Games,USD,400000.0,776084.0,"Los Angeles, CA",18558,"[137, 1000, 8680, 2492, 1550, 261, 501, 1396, 426, 682, 293, 107, 680, 95, 48, 5, 8, 0, 1]","[5.0, 12.0, 15.0, 25.0, 35.0, 45.0, 55.0, 60.0, 75.0, 90.0, 110.0, 150.0, 200.0, 350.0, 500.0, 1000.0, 2500.0, 5000.0, 10000.0]",33.973093,-118.247896
68,Pono Music - Where Your Soul Rediscovers Music,Sound,USD,800000.0,6225354.0,"San Francisco, CA",18220,"[1061, 538, 1010, 100, 2563, 1324, 713, 888, 500, 324, 365, 499, 500, 336, 492, 397, 374, 126, 500, 468, 358, 498, 456, 96, 500, 392, 193, 55, 500, 57, 251, 44, 7, 7, 275, 34, 111, 313, 72, 364, 30, 30, 21, 15]","[5.0, 50.0, 100.0, 200.0, 300.0, 300.0, 300.0, 300.0, 400.0, 400.0, 400.0, 400.0, 400.0, 400.0, 400.0, 400.0, 400.0, 400.0, 400.0, 400.0, 400.0, 400.0, 400.0, 400.0, 400.0, 400.0, 400.0, 400.0, 400.0, 400.0, 400.0, 400.0, 400.0, 400.0, 400.0, 400.0, 400.0, 400.0, 400.0, 400.0, 5000.0, 5000.0, 5000.0, 5000.0]",37.621944,-122.381944
69,Bee and PuppyCat: The Series,Animation,USD,600000.0,872133.0,"New York, NY",18209,"[2114, 2246, 755, 3331, 1338, 2910, 823, 1887, 50, 50, 35, 49, 28, 147, 22, 1, 5, 1]","[15.0, 20.0, 20.0, 35.0, 35.0, 50.0, 75.0, 100.0, 150.0, 175.0, 200.0, 250.0, 300.0, 400.0, 750.0, 2500.0, 5000.0, 10000.0]",40.74838,-73.996705
70,Armikrog.,Video Games,USD,900000.0,974578.0,"Lake Forest, CA",18126,"[587, 7000, 3389, 670, 836, 1070, 1097, 572, 418, 475, 791, 100, 70, 275, 27, 136, 8, 8, 44, 6, 18, 3, 5, 5, 5, 1, 2, 3]","[5.0, 20.0, 25.0, 30.0, 35.0, 45.0, 50.0, 60.0, 75.0, 90.0, 125.0, 130.0, 150.0, 200.0, 250.0, 350.0, 400.0, 495.0, 500.0, 650.0, 1000.0, 1500.0, 2500.0, 3500.0, 4500.0, 4500.0, 6000.0, 10000.0]",33.640015,-117.68819
71,HEX MMO Trading Card Game,Video Games,USD,300000.0,2278255.0,"Irvine, CA",17765,"[273, 2981, 2717, 1641, 1795, 928, 250, 3205, 686, 144, 964, 113, 913, 959, 50, 24, 1, 13]","[10.0, 20.0, 35.0, 50.0, 65.0, 85.0, 90.0, 120.0, 250.0, 250.0, 250.0, 250.0, 250.0, 500.0, 1000.0, 2500.0, 5000.0, 10000.0]",33.7357,-117.7672
72,Reaper Miniatures Bones: An Evolution Of Gaming Miniatures,Games,USD,30000.0,3429235.0,"Denton, TX",17744,"[192, 6, 330, 16, 17, 48, 121, 32, 16475, 155, 274, 1, 1, 1, 1, 9, 1, 1, 1, 1, 1, 6, 0, 10, 9, 5, 5, 0, 3]","[1.0, 7.0, 15.0, 18.0, 22.0, 25.0, 28.0, 60.0, 100.0, 110.0, 300.0, 325.0, 425.0, 425.0, 425.0, 450.0, 450.0, 475.0, 475.0, 525.0, 525.0, 600.0, 1000.0, 1000.0, 1000.0, 2000.0, 2000.0, 2200.0, 2500.0]",33.22893,-97.131436
74,Purple\xae Pillow: The World's First No-Pressure Pillow,Technology,USD,25000.0,2640852.0,"Alpine, UT",17733,"[151, 49, 600, 1000, 6826, 939, 200, 6464, 841, 33, 390, 212, 1, 0]","[1.0, 19.0, 69.0, 69.0, 79.0, 79.0, 149.0, 149.0, 149.0, 699.0, 999.0, 1299.0, 5000.0, 10000.0]",40.461591,-111.768861
76,ARKYD: A Space Telescope for Everyone,Space Exploration,USD,1000000.0,1505366.0,"Seattle, WA",17614,"[1865, 7208, 1353, 2781, 1978, 275, 998, 43, 62, 102, 35, 49, 26, 1, 6, 10, 27]","[10.0, 25.0, 39.0, 65.0, 99.0, 125.0, 200.0, 200.0, 325.0, 450.0, 650.0, 1000.0, 1750.0, 2500.0, 5000.0, 5000.0, 10000.0]",47.611435,-122.330456
77,Matchstick - The Streaming Stick Built on Firefox OS,Gadgets,USD,100000.0,470310.0,"San Jose, CA",17218,"[76, 500, 11304, 250, 4581, 299, 156, 0]","[2.0, 12.0, 18.0, 24.0, 34.0, 80.0, 160.0, 10000.0]",37.3894,-121.8868
79,The Everyday Messenger: A Bag For Cameras & Essential Carry,Product Design,USD,100000.0,4869472.0,"San Francisco, CA",17029,"[695, 4216, 7155, 4310, 254, 7]","[30.0, 195.0, 225.0, 375.0, 620.0, 5500.0]",37.621944,-122.381944
80,Crowfall - Throne War PC MMO,Video Games,USD,800000.0,1766204.0,"Austin, TX",16936,"[286, 2999, 3999, 1881, 192, 2782, 847, 353, 600, 592, 600, 994, 300, 256, 57, 13, 10, 15]","[5.0, 30.0, 34.0, 36.0, 40.0, 60.0, 100.0, 130.0, 150.0, 175.0, 215.0, 250.0, 425.0, 500.0, 1000.0, 2500.0, 5000.0, 10000.0]",30.505972,-97.747187
81,The Bill Nye Film,Documentary,USD,650000.0,859425.0,"Brooklyn, NY",16850,"[1665, 1752, 817, 626, 1177, 977, 200, 476, 3103, 200, 996, 788, 79, 688, 641, 150, 100, 100, 100, 254, 111, 146, 90, 168, 74, 56, 50, 20, 37, 4, 0, 3, 3]","[5.0, 10.0, 15.0, 20.0, 25.0, 30.0, 30.0, 35.0, 35.0, 35.0, 50.0, 55.0, 60.0, 75.0, 75.0, 100.0, 100.0, 125.0, 125.0, 150.0, 150.0, 150.0, 150.0, 150.0, 150.0, 175.0, 200.0, 500.0, 1000.0, 1500.0, 5000.0, 10000.0, 10000.0]",40.694021,-73.99034
82,The Superbook: Turn your smartphone into a laptop,Hardware,USD,50000.0,2952508.0,"San Francisco, CA",16732,"[226, 44, 150, 9984, 445, 150, 4148, 71, 68, 702, 476, 62, 2]","[5.0, 25.0, 85.0, 99.0, 99.0, 145.0, 159.0, 198.0, 198.0, 198.0, 299.0, 599.0, 9900.0]",37.621944,-122.381944
83,Tiko - The Unibody 3D Printer,3D Printing,USD,100000.0,2950874.0,"Niagara Falls, NY",16538,"[53, 100, 400, 2500, 3000, 2999, 2999, 3000, 1238]","[18.0, 99.0, 139.0, 179.0, 179.0, 179.0, 179.0, 179.0, 179.0]",43.095467,-79.041443
84,"Omega2: $5 Linux Computer with Wi-Fi, Made for IoT",DIY Electronics,USD,15000.0,672801.0,"Boston, MA",16537,"[97, 1730, 3535, 1108, 3639, 554, 1549, 716, 690, 666, 552, 207, 1047, 303, 78, 25]","[1.0, 5.0, 9.0, 20.0, 24.0, 35.0, 39.0, 59.0, 64.0, 74.0, 75.0, 99.0, 124.0, 149.0, 279.0, 499.0]",42.357603,-71.068432
85,BetterBack\u2014Perfect Posture Effortlessly (getbetterback.com),Product Design,USD,12500.0,1193776.0,"San Francisco, CA",16459,"[186, 2999, 9097, 193, 4, 1923, 1750, 11, 28, 5, 157, 1, 4]","[1.0, 49.0, 49.0, 75.0, 95.0, 95.0, 95.0, 149.0, 149.0, 150.0, 285.0, 450.0, 850.0]",37.621944,-122.381944
86,The Mandate,Video Games,USD,500000.0,701010.0,"Sacramento, CA",16408,"[55, 5859, 100, 1809, 5723, 842, 885, 389, 235, 200, 41, 20, 4, 23, 4, 5, 2, 0, 1, 3, 1, 1, 1]","[10.0, 20.0, 25.0, 30.0, 40.0, 50.0, 75.0, 100.0, 150.0, 200.0, 250.0, 300.0, 350.0, 500.0, 750.0, 1000.0, 1000.0, 1500.0, 1500.0, 2000.0, 4000.0, 5000.0, 10000.0]",38.5816,-121.4933
87,"Passion Planner: Get One, Give One",Product Design,USD,15000.0,706287.0,"San Diego, CA",16335,"[1482, 50, 50, 1000, 300, 300, 998, 2202, 300, 300, 1790, 1950, 1437, 461, 409, 285, 164, 297, 287, 179, 120, 328, 33, 250, 270, 263, 272, 258, 55, 55, 63, 47, 14, 12, 17, 14]","[1.0, 20.0, 25.0, 25.0, 25.0, 25.0, 30.0, 30.0, 30.0, 30.0, 30.0, 35.0, 35.0, 50.0, 50.0, 55.0, 55.0, 55.0, 55.0, 55.0, 55.0, 60.0, 60.0, 60.0, 60.0, 60.0, 65.0, 65.0, 110.0, 110.0, 135.0, 135.0, 210.0, 210.0, 260.0, 260.0]",32.71852,-117.159316
88,OLO - The First Ever Smartphone 3D Printer.,Technology,USD,80000.0,2321811.0,"San Francisco, CA",16180,"[66, 11, 8, 7, 5, 43, 996, 997, 4516, 238, 139, 1925, 5419, 493, 873, 17, 0, 0, 1, 0]","[19.0, 29.0, 39.0, 49.0, 69.0, 73.0, 79.0, 89.0, 99.0, 99.0, 103.0, 119.0, 129.0, 133.0, 239.0, 999.0, 2499.0, 6499.0, 9999.0, 9999.0]",37.621944,-122.381944
89,Conan,Tabletop Games,USD,80000.0,3327757.0,"Las Vegas, NV",16038,"[1369, 700, 13656]","[90.0, 125.0, 135.0]",36.172082,-115.122366
91,Unsung Story: Tale of the Guardians,Video Games,USD,600000.0,660126.0,"Carlsbad, CA",15824,"[191, 11935, 303, 930, 1210, 253, 152, 70, 187, 336, 76, 5, 4, 0, 0]","[3.0, 20.0, 30.0, 50.0, 80.0, 110.0, 140.0, 165.0, 165.0, 250.0, 400.0, 1000.0, 2500.0, 5000.0, 10000.0]",33.160241,-117.324998
94,Thimbleweed Park: A New Classic Point & Click Adventure!,Video Games,USD,375000.0,626250.0,"San Francisco, CA",15623,"[69, 8016, 3048, 797, 2279, 341, 14, 34, 101, 614, 40, 86, 35, 16, 0, 3, 0]","[5.0, 20.0, 25.0, 35.0, 50.0, 75.0, 100.0, 150.0, 150.0, 150.0, 250.0, 350.0, 500.0, 1000.0, 2500.0, 5000.0, 10000.0]",37.621944,-122.381944
97,The CRABBY Wallet: A wallet that is not for everyone...,Fashion,USD,10000.0,308838.0,"Ogden, UT",15129,"[210, 835, 14028]","[12.0, 15.0, 16.0]",41.2443,-112.0072
99,Reaper Miniatures Bones II: The Return Of Mr Bones!,Tabletop Games,USD,30000.0,3169610.0,"Denton, TX",14964,"[499, 250, 500, 250, 250, 500, 2001, 2000, 1999, 1996, 1994, 1992, 558, 91]","[1.0, 1.0, 1.0, 1.0, 1.0, 1.0, 100.0, 100.0, 100.0, 100.0, 100.0, 100.0, 100.0, 100.0]",33.22893,-97.131436
100,The Order of the Stick Reprint Drive,Comics,USD,57750.0,1254120.0,"Philadelphia, PA",14952,"[2256, 10, 1, 218, 38, 574, 223, 179, 2350, 772, 379, 374, 500, 395, 204, 25, 103, 131, 309, 74, 25, 30, 132, 29, 25, 109, 132, 35, 1222, 338, 80, 50, 163, 108, 250, 25, 6, 58, 34, 297, 30, 10, 53, 38, 200, 259, 30, 14, 5, 1191, 25, 52, 50, 30, 450, 94, 25, 15, 12, 10, 5, 3, 1, 1]","[10.0, 11.0, 12.0, 14.0, 14.0, 15.0, 16.0, 24.0, 25.0, 26.0, 29.0, 32.0, 35.0, 36.0, 37.0, 38.0, 42.0, 43.0, 45.0, 49.0, 50.0, 52.0, 55.0, 57.0, 60.0, 61.0, 62.0, 65.0, 67.0, 68.0, 70.0, 75.0, 78.0, 79.0, 80.0, 83.0, 84.0, 87.0, 92.0, 94.0, 96.0, 100.0, 107.0, 114.0, 115.0, 139.0, 155.0, 192.0, 200.0, 222.0, 240.0, 245.0, 250.0, 262.0, 295.0, 300.0, 305.0, 575.0, 600.0, 675.0, 750.0, 1250.0, 4000.0, 5000.0]",40.1162,-75.0141
101,B I B L I O T H E C A,Typography,USD,37000.0,1440345.0,"Santa Cruz, CA",14884,"[91, 16, 34, 944, 165, 28, 44, 206, 50, 8331, 797, 7, 245, 256, 18, 112, 143, 23, 19, 419, 230, 1146, 429, 29, 90, 34, 358, 25, 47, 50, 123, 4, 134, 100, 19, 9, 28, 13, 5, 1]","[5.0, 25.0, 25.0, 25.0, 45.0, 50.0, 60.0, 63.0, 70.0, 75.0, 75.0, 75.0, 75.0, 75.0, 75.0, 75.0, 75.0, 75.0, 75.0, 100.0, 125.0, 140.0, 150.0, 165.0, 190.0, 200.0, 201.0, 215.0, 215.0, 240.0, 272.0, 275.0, 290.0, 335.0, 350.0, 426.0, 650.0, 1000.0, 1000.0, 5000.0]",36.982946,-122.043612
102,Camelot Unchained,Video Games,USD,2000000.0,2232933.0,"Fairfax, VA",14873,"[193, 1942, 1082, 3153, 470, 839, 3295, 155, 104, 251, 499, 34, 1658, 80, 393, 25, 22, 204, 23, 33, 100, 18, 6, 20, 47, 9, 6, 9, 3, 7, 4, 12, 9, 15, 4, 0]","[5.0, 25.0, 30.0, 50.0, 55.0, 75.0, 110.0, 120.0, 150.0, 175.0, 180.0, 225.0, 250.0, 250.0, 350.0, 450.0, 450.0, 500.0, 600.0, 750.0, 1000.0, 1000.0, 1200.0, 1200.0, 1250.0, 1500.0, 1700.0, 2500.0, 3000.0, 3250.0, 3251.0, 3500.0, 5000.0, 5000.0, 10000.0, 10000.0]",38.845826,-77.324151
103,Shovel Knight,Video Games,USD,75000.0,311502.0,"Los Angeles, CA",14749,"[6282, 5992, 977, 184, 776, 69, 50, 77, 18, 123, 7, 10, 16, 5, 0, 0]","[10.0, 15.0, 25.0, 50.0, 60.0, 75.0, 100.0, 101.0, 150.0, 200.0, 300.0, 350.0, 500.0, 1000.0, 2000.0, 5000.0]",33.973093,-118.247896
104,Prey for the Gods,Video Games,USD,300000.0,501252.0,"Kirkland, WA",14738,"[79, 7176, 3089, 298, 1205, 1673, 56, 50, 75, 106, 180, 54, 102, 219, 23, 52, 69, 103, 10, 9, 2, 0]","[5.0, 15.0, 25.0, 30.0, 35.0, 50.0, 50.0, 65.0, 65.0, 75.0, 100.0, 100.0, 125.0, 150.0, 195.0, 200.0, 250.0, 300.0, 650.0, 1000.0, 5000.0, 10000.0]",47.678597,-122.189442
105,Tiny Epic Western,Tabletop Games,USD,15000.0,468629.0,"Phoenix, AZ",14579,"[94, 586, 12677, 32, 929, 3, 122, 13]","[8.0, 18.0, 24.0, 34.0, 44.0, 140.0, 180.0, 250.0]",33.451,-112.0685
108,The Cyanide & Happiness Show,Animation,USD,250000.0,770309.0,"Dallas, TX",14242,"[1002, 4152, 2687, 3698, 2081, 179, 30, 167, 26, 16, 2, 11, 4, 1, 0, 1, 0]","[1.0, 15.0, 30.0, 60.0, 100.0, 150.0, 200.0, 250.0, 500.0, 750.0, 1000.0, 1000.0, 5000.0, 8000.0, 10000.0, 10000.0, 10000.0]",32.790439,-96.80439
109,Battle Chasers: Nightwar,Video Games,USD,500000.0,856354.0,"Austin, TX",14175,"[228, 1499, 1500, 3500, 2290, 1662, 631, 299, 749, 661, 124, 601, 100, 66, 48, 25, 20, 8, 5, 10, 12, 5, 2, 2, 9, 6, 2]","[5.0, 20.0, 25.0, 27.0, 30.0, 40.0, 55.0, 70.0, 90.0, 100.0, 135.0, 200.0, 300.0, 325.0, 400.0, 525.0, 550.0, 575.0, 650.0, 850.0, 1000.0, 1150.0, 1285.0, 1500.0, 2500.0, 4000.0, 10000.0]",30.505972,-97.747187
110,PolyHero Dice - Wizard Set,Tabletop Games,USD,27000.0,575926.0,"Londonderry, NH",14160,"[96, 6278, 4356, 1225, 854, 318, 225, 97, 457, 11, 192]","[1.0, 15.0, 29.0, 42.0, 54.0, 65.0, 75.0, 84.0, 93.0, 106.0, 119.0]",42.865555,-71.37719
111,Amplitude,Video Games,USD,775000.0,844127.0,"Cambridge, MA",14112,"[294, 1000, 7594, 1000, 1677, 527, 678, 547, 384, 20, 73, 49, 0, 3, 1, 5, 1, 3]","[10.0, 15.0, 20.0, 35.0, 40.0, 70.0, 100.0, 125.0, 200.0, 250.0, 250.0, 500.0, 3000.0, 3500.0, 3501.0, 7500.0, 8000.0, 10000.0]",42.377045,-71.125611
112,Make Leisure Suit Larry come again!,Video Games,USD,500000.0,655182.0,"Austin, TX",14081,"[42, 8551, 1754, 803, 558, 280, 1338, 339, 94, 83, 20, 42, 2, 4, 1, 2, 4, 2, 1, 0, 1]","[5.0, 15.0, 25.0, 40.0, 50.0, 75.0, 100.0, 150.0, 250.0, 500.0, 750.0, 1000.0, 1100.0, 1250.0, 2500.0, 2500.0, 5000.0, 5000.0, 5000.0, 5000.0, 10000.0]",30.505972,-97.747187
114,Underworld Ascendant,Video Games,USD,600000.0,860356.0,"Lexington, MA",13987,"[105, 4998, 2936, 1649, 1042, 1042, 466, 472, 461, 489, 90, 66, 17, 31, 2, 5, 0, 2, 5]","[5.0, 20.0, 25.0, 35.0, 50.0, 75.0, 100.0, 125.0, 150.0, 200.0, 300.0, 500.0, 750.0, 1000.0, 1500.0, 3000.0, 5000.0, 7500.0, 10000.0]",42.4558,-71.2193
115,7 Days to Die  - Zombie Survival Game,Video Games,USD,200000.0,507612.0,"Dallas, TX",13876,"[51, 1734, 1350, 8773, 430, 1090, 21, 42, 45, 128, 38, 0, 25, 2, 4, 1, 7, 1, 1, 0, 0]","[5.0, 15.0, 25.0, 35.0, 50.0, 60.0, 65.0, 75.0, 100.0, 120.0, 150.0, 175.0, 200.0, 250.0, 300.0, 400.0, 500.0, 1000.0, 5000.0, 7500.0, 10000.0]",32.790439,-96.80439
116,Robot Turtles: The Board Game for Little Programmers,Tabletop Games,USD,25000.0,631230.0,"Seattle, WA",13765,"[152, 9763, 1057, 476, 1989, 73, 188, 10, 3, 0, 1, 1, 0, 1, 0]","[1.0, 29.0, 40.0, 60.0, 80.0, 200.0, 240.0, 400.0, 440.0, 780.0, 2500.0, 3000.0, 4500.0, 4500.0, 4500.0]",47.611435,-122.330456
117,Yogventures!,Video Games,USD,250000.0,567665.0,"Los Angeles, CA",13647,"[7069, 3404, 759, 965, 980, 93, 120, 37, 36, 1, 5, 5]","[15.0, 25.0, 30.0, 60.0, 90.0, 200.0, 300.0, 500.0, 750.0, 2000.0, 5000.0, 10000.0]",33.973093,-118.247896
118,8-in-1 EVOLUTION BRA: The World's Most Advanced Bra,Fashion,USD,30000.0,1105177.0,"New York, NY",13642,"[95, 33, 250, 250, 750, 2499, 1499, 750, 2499, 973, 500, 500, 264, 500, 500, 280, 250, 500, 157, 109, 64, 100, 244, 7]","[5.0, 15.0, 45.0, 50.0, 50.0, 50.0, 50.0, 65.0, 65.0, 65.0, 95.0, 95.0, 95.0, 125.0, 125.0, 125.0, 130.0, 150.0, 150.0, 180.0, 230.0, 275.0, 275.0, 275.0]",40.74838,-73.996705
119,TikTok+LunaTik Multi-Touch Watch Kits,Product Design,USD,15000.0,942578.0,"Chicago, IL",13512,"[128, 2432, 5013, 4390, 1398, 100]","[1.0, 25.0, 50.0, 70.0, 150.0, 500.0]",41.885847,-87.618123
120,Reaper Miniatures Bones 3: The Search for Mr. Bones!,Tabletop Games,USD,30000.0,2730365.0,"Denton, TX",13465,"[500, 500, 500, 500, 500, 656, 2000, 2000, 1500, 1499, 1499, 1497, 263]","[1.0, 1.0, 1.0, 1.0, 1.0, 1.0, 100.0, 100.0, 100.0, 100.0, 100.0, 100.0, 100.0]",33.22893,-97.131436
121,Good Night Stories for Rebel Girls - 100 tales to dream BIG,Children's Books,USD,40000.0,675614.0,"Los Angeles, CA",13454,"[216, 65, 703, 100, 250, 8954, 774, 1282, 541, 185, 250, 10, 4, 2]","[5.0, 12.0, 20.0, 25.0, 30.0, 35.0, 49.0, 67.0, 99.0, 150.0, 158.0, 248.0, 489.0, 3000.0]",33.973093,-118.247896
123,"ADV3NTURE Hoodie, the Most Funded Fashion Kickstarter EVER!",Apparel,USD,25000.0,1851033.0,"Los Angeles, CA",13363,"[1499, 1863, 1500, 110, 1998, 18, 209, 41, 1499, 1075, 45, 380, 54, 629, 1470, 397, 302, 140, 19, 12]","[79.0, 89.0, 89.0, 99.0, 99.0, 109.0, 109.0, 119.0, 129.0, 139.0, 149.0, 158.0, 159.0, 178.0, 210.0, 258.0, 289.0, 299.0, 510.0, 720.0]",33.973093,-118.247896
124,The Spark Planner - Achieve all your goals in 2016,Product Design,USD,15000.0,460602.0,"Seattle, WA",13263,"[4042, 250, 2073, 2374, 678, 1291, 648, 658, 175, 411, 185, 319, 39, 77, 27, 3]","[1.0, 25.0, 30.0, 30.0, 35.0, 35.0, 55.0, 55.0, 60.0, 60.0, 65.0, 65.0, 145.0, 145.0, 270.0, 400.0]",47.611435,-122.330456
125,Misen: Cook Sharp,Food,USD,25000.0,1083344.0,"Brooklyn, NY",13116,"[150, 100, 7880, 1178, 2806, 513, 81, 43, 281, 30, 7, 10, 4]","[1.0, 45.0, 55.0, 75.0, 100.0, 135.0, 150.0, 200.0, 225.0, 305.0, 450.0, 500.0, 500.0]",40.694021,-73.99034
126,"Lima,\xa0The Brain of Your Devices",Technology,USD,69000.0,1229074.0,"Newark, DE",12840,"[200, 300, 2700, 1200, 1825, 3274, 900, 500, 540, 1190, 17, 8, 4]","[59.0, 69.0, 69.0, 79.0, 79.0, 79.0, 129.0, 149.0, 149.0, 149.0, 500.0, 500.0, 5000.0]",39.634869,-75.699339
127,OrganATTACK! - a Card Game by The Awkward Yeti,Tabletop Games,USD,12000.0,526274.0,"Detroit, MI",12798,"[95, 7841, 1003, 655, 995, 846, 145, 478, 174, 238, 49, 55, 1, 33, 32, 11, 37, 2, 7, 0, 0, 5, 3, 1, 1, 1, 1]","[16.0, 20.0, 30.0, 35.0, 40.0, 45.0, 55.0, 55.0, 60.0, 65.0, 80.0, 100.0, 107.0, 130.0, 140.0, 160.0, 190.0, 200.0, 200.0, 230.0, 251.0, 257.0, 350.0, 500.0, 500.0, 500.0, 1000.0]",42.347429,-83.060398
128,"""This is Fine"" Plush Dog.",Crafts,USD,35000.0,454717.0,"Easthampton, MA",12705,"[5162, 6135, 1224, 83, 29]","[25.0, 35.0, 65.0, 140.0, 275.0]",42.264319,-72.679921
129,"Pulse - Your Camera, Upgraded.",Camera Equipment,USD,50000.0,1110820.0,"San Francisco, CA",12626,"[398, 1706, 10393, 98, 1]","[1.0, 69.0, 74.0, 350.0, 3000.0]",37.621944,-122.381944
130,BULLET | World's Smallest LED Flashlight,Gadgets,USD,10000.0,353317.0,"San Francisco, CA",12578,"[865, 438, 3105, 2748, 1144, 662, 2579, 473, 361, 140]","[8.0, 9.0, 17.0, 17.0, 18.0, 20.0, 30.0, 32.0, 52.0, 100.0]",37.621944,-122.381944
131,Prepd Pack - The Lunchbox Reimagined,Food,USD,25000.0,1439098.0,"San Francisco, CA",12557,"[285, 2446, 3494, 1236, 972, 1143, 1546, 646, 136, 322, 139, 74, 37]","[1.0, 50.0, 65.0, 80.0, 94.0, 95.0, 125.0, 155.0, 165.0, 180.0, 220.0, 270.0, 385.0]",37.621944,-122.381944
132,"The Field Skillet: Lighter, Smoother Cast Iron",Food,USD,30000.0,1633361.0,"Brooklyn, NY",12553,"[137, 500, 1000, 1000, 1500, 1500, 1500, 2627, 300, 500, 250, 250, 250, 522, 200, 200, 75, 50, 25, 50, 21, 6, 3]","[15.0, 85.0, 90.0, 90.0, 90.0, 90.0, 90.0, 90.0, 135.0, 175.0, 180.0, 180.0, 180.0, 180.0, 245.0, 270.0, 275.0, 275.0, 365.0, 365.0, 365.0, 1000.0, 5000.0]",40.694021,-73.99034
133,Elevation Dock: The Best Dock For iPhone,Product Design,USD,75000.0,1464706.0,"Portland, OR",12521,"[3726, 4179, 1956, 1918, 196, 229, 178, 5, 13, 8]","[59.0, 79.0, 85.0, 118.0, 150.0, 250.0, 500.0, 2000.0, 5000.0, 10000.0]",45.443343,-122.775974
134,Tiny Epic Galaxies - The Universe In Your Pocket!,Tabletop Games,USD,15000.0,411693.0,"Queen Creek, AZ",12458,"[90, 959, 10098, 62, 950, 7, 72, 20, 7, 120, 10]","[8.0, 16.0, 24.0, 30.0, 44.0, 84.0, 120.0, 125.0, 130.0, 180.0, 250.0]",33.151087,-111.511058
135,Grim Dawn,Video Games,USD,280000.0,537515.0,"Boston, MA",12457,"[5215, 217, 150, 894, 1351, 441, 468, 859, 642, 199, 241, 535, 187, 275, 170, 22, 59, 31, 10, 1, 1]","[18.0, 24.0, 28.0, 32.0, 35.0, 45.0, 48.0, 50.0, 58.0, 64.0, 78.0, 85.0, 98.0, 100.0, 150.0, 175.0, 250.0, 375.0, 1000.0, 4000.0, 8000.0]",42.357603,-71.068432
136,Circuit Scribe: Draw Circuits Instantly,DIY Electronics,USD,85000.0,674425.0,"Urbana, IL",12277,"[162, 1327, 250, 2915, 100, 1457, 50, 3881, 177, 1488, 22, 25, 199, 3, 1]","[5.0, 20.0, 25.0, 30.0, 35.0, 40.0, 45.0, 50.0, 90.0, 100.0, 175.0, 190.0, 200.0, 500.0, 5000.0]",40.109522,-88.203631
137,Friday the 13th: The Game,Video Games,USD,700000.0,823704.0,"Lexington, KY",12218,"[319, 117, 2500, 2065, 1488, 375, 750, 274, 72, 1123, 706, 65, 619, 169, 12, 130, 29, 500, 262, 92, 100, 162, 12, 20, 6, 21, 8, 1, 5, 1, 0, 0, 1, 4]","[5.0, 15.0, 25.0, 30.0, 40.0, 45.0, 50.0, 55.0, 59.0, 65.0, 75.0, 79.0, 99.0, 100.0, 110.0, 129.0, 139.0, 140.0, 140.0, 230.0, 275.0, 275.0, 400.0, 500.0, 750.0, 1000.0, 1199.0, 1250.0, 2000.0, 2500.0, 5000.0, 6000.0, 7500.0, 10000.0]",38.017394,-84.485423
138,Tak: A Beautiful Game,Tabletop Games,USD,50000.0,1351142.0,"Seattle, WA",12187,"[621, 614, 594, 1463, 2056, 2878, 2004, 982, 328, 170, 382]","[5.0, 15.0, 25.0, 40.0, 55.0, 65.0, 90.0, 155.0, 250.0, 475.0, 550.0]",47.611435,-122.330456
142,Zombicide: Season 3,Tabletop Games,USD,100000.0,2849064.0,"Atlanta, GA",12011,"[500, 957, 400, 9972]","[90.0, 100.0, 140.0, 150.0]",33.7564,-84.3918
144,Epic Card Game,Tabletop Games,USD,50000.0,585122.0,"Framingham, MA",11858,"[80, 11542, 170, 4, 2]","[15.0, 20.0, 135.0, 1000.0, 5000.0]",42.300665,-71.425486
145,The Micro: The First Truly Consumer 3D Printer,3D Printing,USD,50000.0,3401361.0,"Bethesda, MD",11855,"[758, 177, 250, 500, 2500, 2494, 2498, 2318, 205, 48, 3, 1, 0]","[1.0, 25.0, 199.0, 249.0, 299.0, 299.0, 299.0, 299.0, 599.0, 899.0, 2000.0, 5000.0, 10000.0]",38.9806,-77.1008
147,99% Invisible: Season 4- Weekly!,Radio &amp; Podcasts,USD,150000.0,375193.0,"San Francisco, CA",11693,"[2710, 2079, 1350, 894, 215, 5, 162, 194, 560, 304, 78, 200, 189, 49, 47, 5, 6, 2, 2]","[5.0, 15.0, 30.0, 45.0, 45.0, 50.0, 50.0, 50.0, 55.0, 55.0, 80.0, 100.0, 130.0, 140.0, 300.0, 500.0, 1200.0, 2500.0, 10000.0]",37.621944,-122.381944
148,"RiffTrax Live 2016: MST3K Reunion, Time Chasers & Mothra!",Comedy,USD,225000.0,620999.0,"Minneapolis, MN",11686,"[1727, 697, 1109, 919, 552, 591, 537, 2744, 287, 12, 1638, 384, 178, 94, 12, 12, 12, 5, 4, 9, 1, 6, 18]","[1.0, 5.0, 10.0, 15.0, 25.0, 30.0, 35.0, 50.0, 75.0, 90.0, 100.0, 125.0, 175.0, 250.0, 500.0, 550.0, 625.0, 750.0, 760.0, 1000.0, 1005.0, 1350.0, 2000.0]",44.983473,-93.268251
151,The Universim,Video Games,USD,320000.0,387345.0,"San Diego, CA",11617,"[37, 700, 4226, 1656, 2146, 267, 184, 269, 119, 260, 105, 337, 433, 30, 44, 330, 94, 18, 39, 31, 81, 30, 65, 3, 0, 2, 0, 0, 0, 0, 0, 0, 0, 0, 0, 0, 4, 0]","[5.0, 10.0, 15.0, 20.0, 30.0, 35.0, 35.0, 40.0, 45.0, 50.0, 55.0, 60.0, 65.0, 70.0, 80.0, 90.0, 100.0, 120.0, 130.0, 150.0, 160.0, 200.0, 250.0, 500.0, 600.0, 750.0, 850.0, 1000.0, 1250.0, 1300.0, 1350.0, 1500.0, 1650.0, 1800.0, 2000.0, 2350.0, 3000.0, 10000.0]",32.71852,-117.159316
152,Republique by Camouflaj + Logan,Video Games,USD,500000.0,555662.0,"Seattle, WA",11611,"[2283, 2559, 2310, 533, 609, 500, 829, 615, 102, 695, 205, 57, 33, 75, 21, 15, 3, 1, 2]","[10.0, 15.0, 20.0, 25.0, 30.0, 40.0, 50.0, 60.0, 75.0, 100.0, 125.0, 150.0, 200.0, 250.0, 500.0, 1000.0, 5000.0, 7500.0, 10000.0]",47.611435,-122.330456
153,7th Sea: Second Edition,Tabletop Games,USD,30000.0,1316813.0,"Phoenix, AZ",11483,"[145, 2942, 4274, 1517, 161, 74, 57, 1237, 51, 58, 27, 36, 51, 12, 25, 11, 26, 5, 22, 3, 18, 2, 11, 0, 40, 71, 10, 4, 1, 300, 10, 20, 15, 2, 5]","[20.0, 40.0, 60.0, 80.0, 120.0, 120.0, 160.0, 200.0, 200.0, 240.0, 240.0, 250.0, 280.0, 280.0, 320.0, 320.0, 360.0, 360.0, 400.0, 400.0, 440.0, 440.0, 480.0, 480.0, 500.0, 500.0, 520.0, 560.0, 600.0, 650.0, 1000.0, 1000.0, 1000.0, 1000.0, 2500.0]",33.451,-112.0685
154,NeoLucida - A Portable Camera Lucida for the 21st Century,Product Design,USD,15000.0,424959.0,"Chicago, IL",11406,"[654, 825, 1369, 2500, 3750, 2250, 20, 3]","[1.0, 2.0, 12.0, 30.0, 40.0, 47.0, 250.0, 3500.0]",41.885847,-87.618123
155,FireFlies - Truly Wire-Free Earbuds - Music Without Limits!,Sound,USD,20000.0,1115031.0,"Salt Lake City, UT",11360,"[201, 3, 98, 63, 7625, 2431, 169, 67, 34, 389, 127, 43, 19, 7, 7, 3, 1, 0, 0, 2, 6]","[1.0, 25.0, 79.0, 79.0, 79.0, 79.0, 99.0, 99.0, 119.0, 149.0, 194.0, 219.0, 284.0, 289.0, 369.0, 451.0, 527.0, 600.0, 668.0, 731.0, 790.0]",40.755851,-111.896657
156,ZUNGLE : Wear the Beats,Product Design,USD,50000.0,1947035.0,"Los Angeles, CA",11349,"[284, 28, 500, 1000, 6067, 2513, 419, 243, 214, 18]","[1.0, 10.0, 89.0, 99.0, 109.0, 198.0, 285.0, 450.0, 850.0, 8000.0]",33.973093,-118.247896
157,The Name of the Wind Playing Cards,Graphic Design,USD,10000.0,589660.0,"Austin, TX",11334,"[46, 3700, 322, 1249, 2200, 699, 658, 440, 1303, 60, 35, 360, 50, 45, 50, 1, 30, 2, 2, 2, 3, 20, 15, 1, 1, 3, 2, 15, 4, 1, 1, 1]","[1.0, 11.0, 11.0, 20.0, 21.0, 30.0, 31.0, 42.0, 65.0, 85.0, 100.0, 135.0, 155.0, 255.0, 275.0, 445.0, 460.0, 500.0, 500.0, 500.0, 500.0, 550.0, 580.0, 650.0, 700.0, 700.0, 700.0, 720.0, 820.0, 1000.0, 1000.0, 2000.0]",30.505972,-97.747187
158,1 Second Everyday App,Apps,USD,20000.0,56959.0,"Brooklyn, NY",11281,"[7525, 2273, 893, 409, 50, 10, 17, 30, 15, 4, 1]","[1.0, 5.0, 10.0, 25.0, 50.0, 100.0, 100.0, 150.0, 250.0, 350.0, 1350.0]",40.694021,-73.99034
159,De La Soul ...and the Anonymous Nobody - COMING SOON!,Hip-Hop,USD,110000.0,600874.0,"Los Angeles, CA",11169,"[91, 4107, 1360, 678, 183, 187, 1410, 199, 198, 830, 211, 128, 173, 239, 182, 634, 96, 4, 20, 50, 9, 1, 1, 1, 2, 2, 2, 2, 12, 17, 1, 0, 1, 0, 2, 2, 1, 0, 1, 1, 1, 1, 1]","[5.0, 15.0, 25.0, 30.0, 30.0, 30.0, 45.0, 50.0, 50.0, 55.0, 65.0, 70.0, 75.0, 75.0, 100.0, 150.0, 250.0, 250.0, 300.0, 350.0, 350.0, 500.0, 500.0, 500.0, 500.0, 500.0, 500.0, 500.0, 750.0, 1000.0, 1500.0, 1500.0, 1750.0, 1750.0, 2000.0, 2000.0, 2000.0, 2500.0, 5000.0, 5000.0, 6500.0, 7500.0, 10000.0]",33.973093,-118.247896
161,MaKey MaKey: An Invention Kit for Everyone,DIY Electronics,USD,25000.0,568106.0,"Santa Cruz, CA",11124,"[58, 7227, 1947, 1006, 316, 254, 99, 41, 24, 7, 0, 0]","[5.0, 35.0, 50.0, 70.0, 100.0, 105.0, 170.0, 240.0, 420.0, 950.0, 3000.0, 8700.0]",36.982946,-122.043612
162,Rocketbook Wave: Cloud Connected Microwavable Notebook,Product Design,USD,20000.0,574699.0,"Cambridge, MA",10992,"[200, 5745, 3658, 533, 477, 262, 9]","[20.0, 27.0, 50.0, 72.0, 92.0, 115.0, 1050.0]",42.377045,-71.125611
163,The Norlan Whisky Glass,Product Design,USD,75000.0,807452.0,"New York, NY",10926,"[58, 500, 5792, 250, 2718, 100, 761, 50, 430, 61, 152, 33, 4, 2]","[1.0, 35.0, 38.0, 68.0, 74.0, 100.0, 108.0, 130.0, 140.0, 170.0, 198.0, 750.0, 1500.0, 1500.0]",40.74838,-73.996705
164,Dungeon Roll - A Dicey Dungeon Delve,Tabletop Games,USD,15000.0,250070.0,"Tucson, AZ",10877,"[8133, 741, 1272, 100, 276, 260, 14, 17, 9, 5]","[15.0, 23.0, 29.0, 50.0, 75.0, 100.0, 110.0, 175.0, 200.0, 300.0]",32.213873,-110.969445
165,Masmorra: Dungeons of Arcadia,Tabletop Games,USD,60000.0,1010958.0,"Atlanta, GA",10862,"[1000, 9125]","[60.0, 65.0]",33.7564,-84.3918
166,Two Guys SpaceVenture - by the creators of Space Quest,Video Games,USD,500000.0,539767.0,"Eugene, OR",10809,"[6, 5956, 36, 1675, 185, 344, 502, 274, 1, 101, 424, 74, 23, 211, 270, 330, 42, 159, 7, 2, 0, 4, 25, 13, 0, 0, 0, 0, 23, 2, 3, 0, 0, 1, 2, 0]","[5.0, 15.0, 25.0, 30.0, 31.0, 45.0, 50.0, 60.0, 61.0, 75.0, 100.0, 100.0, 101.0, 115.0, 125.0, 150.0, 151.0, 250.0, 500.0, 500.0, 501.0, 515.0, 525.0, 750.0, 1000.0, 1000.0, 1001.0, 1015.0, 1025.0, 2500.0, 5000.0, 7500.0, 7500.0, 9999.0, 10000.0, 10000.0]",44.073677,-123.078757
167,Voyager Golden Record: 40th Anniversary Edition,World Music,USD,198000.0,1363037.0,"San Francisco, CA",10768,"[165, 191, 344, 85, 164, 8815, 723, 118, 26, 41]","[10.0, 15.0, 25.0, 25.0, 35.0, 98.0, 196.0, 294.0, 392.0, 490.0]",37.621944,-122.381944
168,Bagel: The World's Smartest Tape Measure,Gadgets,USD,30000.0,1353798.0,"Newport Beach, CA",10766,"[281, 100, 899, 5858, 119, 100, 250, 1247, 1669, 160, 21, 3]","[1.0, 49.0, 59.0, 69.0, 79.0, 90.0, 110.0, 130.0, 175.0, 410.0, 2000.0, 7500.0]",33.6398,-117.8643
169,Chronicles of Elyria - Epic Story MMORPG with Aging & Death,Video Games,USD,900000.0,1361435.0,"Bellevue, WA",10752,"[140, 3000, 376, 1075, 1000, 264, 418, 500, 234, 1223, 401, 500, 133, 660, 268, 342, 37, 23, 23, 2, 3, 25, 3, 4]","[5.0, 25.0, 35.0, 40.0, 50.0, 60.0, 75.0, 90.0, 100.0, 120.0, 150.0, 175.0, 200.0, 250.0, 350.0, 500.0, 750.0, 1000.0, 1500.0, 2000.0, 2500.0, 3500.0, 5000.0, 10000.0]",47.619899,-122.207371
171,Tiny Epic Galaxies: Beyond the Black,Tabletop Games,USD,15000.0,411635.0,"Phoenix, AZ",10671,"[391, 7299, 2961, 12]","[1.0, 24.0, 46.0, 300.0]",33.451,-112.0685
172,Machine of Death: The Game of Creative Assassination,Tabletop Games,USD,23000.0,556596.0,"Los Angeles, CA",10666,"[60, 114, 240, 2, 36, 4215, 2727, 74, 111, 161, 61, 1174, 50, 604, 15, 12, 12, 773, 7, 142, 25, 5, 0, 0, 0, 1, 1, 3, 0, 0, 0]","[3.0, 10.0, 15.0, 15.0, 20.0, 25.0, 30.0, 40.0, 45.0, 46.0, 69.0, 78.0, 79.0, 83.0, 95.0, 99.0, 120.0, 125.0, 175.0, 179.0, 229.0, 299.0, 333.0, 369.0, 444.0, 488.0, 500.0, 1000.0, 3000.0, 9999.0, 10000.0]",33.973093,-118.247896
175,Video Game High School: Season Two,Film &amp; Video,USD,636010.0,808341.0,"Los Angeles, CA",10613,"[1811, 2267, 2256, 359, 773, 260, 107, 98, 32, 38, 857, 73, 333, 35, 2, 19, 3, 2, 351, 342, 2, 199, 8, 24, 47, 5, 8, 1, 3, 13, 3, 3, 1, 5, 0, 2, 2, 0, 4]","[5.0, 15.0, 30.0, 50.0, 75.0, 100.0, 100.0, 100.0, 100.0, 125.0, 125.0, 125.0, 150.0, 150.0, 150.0, 175.0, 175.0, 175.0, 200.0, 250.0, 250.0, 300.0, 500.0, 500.0, 500.0, 500.0, 1000.0, 1000.0, 1000.0, 1337.0, 2000.0, 2000.0, 2500.0, 3000.0, 4000.0, 5000.0, 5000.0, 9001.0, 10000.0]",33.973093,-118.247896
177,Anova Precision Cooker - Cook sous vide with your phone,Food,USD,100000.0,1811321.0,"San Francisco, CA",10508,"[103, 18, 1000, 1000, 500, 500, 1000, 1000, 396, 994, 250, 497, 117, 19, 199, 1000, 1000, 500, 250, 75, 3, 25, 25, 5]","[1.0, 25.0, 99.0, 129.0, 135.0, 139.0, 145.0, 149.0, 159.0, 159.0, 159.0, 159.0, 169.0, 179.0, 229.0, 229.0, 239.0, 249.0, 259.0, 269.0, 279.0, 325.0, 540.0, 1075.0]",37.621944,-122.381944
178,Smart Herb Garden by Click & Grow,Hardware,USD,75000.0,625851.0,"Palo Alto, CA",10477,"[54, 100, 6859, 869, 102, 216, 500, 1187, 360, 126, 5, 0]","[5.0, 29.0, 39.0, 49.0, 49.0, 49.0, 75.0, 85.0, 125.0, 250.0, 1000.0, 10000.0]",37.444324,-122.149685
180,Make LA Game Space possible!,Video Games,USD,250000.0,335657.0,"Los Angeles, CA",10354,"[380, 6480, 1721, 1411, 197, 66, 22, 3, 1, 1, 1, 0]","[5.0, 15.0, 25.0, 55.0, 150.0, 300.0, 1000.0, 3000.0, 5000.0, 8000.0, 10000.0, 10000.0]",33.973093,-118.247896
181,The uKeg Pressurized Growler for Fresh Beer,Drinks,USD,75000.0,1559525.0,"Portland, OR",10293,"[30, 47, 30, 4, 250, 3894, 970, 2136, 15, 779, 59, 258, 13, 674, 66, 144, 396, 341, 2, 58, 35]","[5.0, 15.0, 20.0, 45.0, 79.0, 99.0, 99.0, 129.0, 130.0, 130.0, 149.0, 150.0, 160.0, 160.0, 179.0, 180.0, 225.0, 285.0, 800.0, 900.0, 1150.0]",45.443343,-122.775974
182,OSSIC X: The first 3D audio headphones calibrated to you,Sound,USD,100000.0,2708472.0,"San Diego, CA",10263,"[212, 88, 1000, 1999, 5997, 704, 80]","[5.0, 25.0, 199.0, 219.0, 249.0, 279.0, 999.0]",32.71852,-117.159316
183,"ZipChip  |  ""The New Way to Play""",Product Design,USD,4000.0,232347.0,"Fairfield, CT",10247,"[4247, 4914, 1060]","[7.0, 19.0, 30.0]",41.1648,-73.2657
185,Music for Cats,Music,USD,20000.0,241651.0,"Washington, DC",10165,"[66, 317, 4492, 1955, 752, 111, 22, 940, 111, 93, 268, 36, 407, 225, 3, 224, 4, 5, 19, 57, 7, 5]","[1.0, 5.0, 15.0, 20.0, 25.0, 25.0, 29.0, 30.0, 30.0, 30.0, 35.0, 39.0, 40.0, 45.0, 49.0, 50.0, 59.0, 59.0, 69.0, 100.0, 250.0, 1000.0]",38.912217,-77.017691
186,"3Doodler 2.0: The World\u2019s First 3D Printing Pen, Reinvented",Technology,USD,30000.0,1552256.0,"Somerville, MA",10160,"[175, 100, 1850, 3094, 2570, 178, 507, 908, 146, 203, 41, 16, 60, 100, 60, 108]","[1.0, 50.0, 85.0, 99.0, 130.0, 150.0, 175.0, 195.0, 198.0, 260.0, 275.0, 300.0, 350.0, 390.0, 500.0, 1000.0]",42.382945,-71.102814
187,The Others: 7 Sins,Tabletop Games,USD,100000.0,1464489.0,"Atlanta, GA",10136,"[1100, 8078]","[90.0, 100.0]",33.7564,-84.3918
190,Dead State: The Zombie Survival RPG,Video Games,USD,150000.0,332635.0,"Seattle, WA",10096,"[6272, 931, 901, 701, 395, 82, 327, 178, 48, 158, 20, 1, 4, 1, 5, 1, 5]","[15.0, 21.0, 30.0, 30.0, 50.0, 75.0, 85.0, 100.0, 150.0, 250.0, 350.0, 500.0, 750.0, 800.0, 1000.0, 2000.0, 5000.0]",47.611435,-122.330456
192,Arcadia Quest: Inferno,Tabletop Games,USD,100000.0,1710713.0,"Atlanta, GA",9991,"[1332, 7848]","[90.0, 100.0]",33.7564,-84.3918
195,"MOGICS Power Donut & Bagel - Share the Power, Save the Space",Product Design,USD,15000.0,437738.0,"Redondo Beach, CA",9882,"[100, 100, 100, 1784, 843, 100, 100, 2379, 4352]","[1.0, 26.0, 26.0, 29.0, 29.0, 36.0, 36.0, 39.0, 39.0]",33.830656,-118.383221
196,Blood Rage,Tabletop Games,USD,50000.0,905682.0,"Atlanta, GA",9825,"[752, 8777]","[70.0, 75.0]",33.7564,-84.3918
199,MEATER: The First Truly Wireless Smart Meat Thermometer,Food,USD,100000.0,1251486.0,"Los Angeles, CA",9737,"[183, 500, 2718, 2256, 400, 401, 400, 1000, 1682, 145, 30, 1]","[1.0, 49.0, 59.0, 99.0, 129.0, 148.0, 149.0, 159.0, 169.0, 252.0, 499.0, 999.0]",33.973093,-118.247896
200,MAGBELT - A magnetic belt that fits perfectly to your waist.,Accessories,USD,7500.0,583544.0,"Denver, CO",9707,"[5, 1, 50, 504, 50, 5134, 50, 1000, 2203, 25, 618, 16, 13, 0]","[12.0, 16.0, 19.0, 24.0, 30.0, 38.0, 58.0, 68.0, 75.0, 116.0, 140.0, 250.0, 350.0, 10000.0]",39.746931,-105.062036
201,Only on Kickstarter: THE LEADER'S GUIDE by ERIC RIES,Publishing,USD,135000.0,588903.0,"San Francisco, CA",9677,"[140, 4960, 1673, 1287, 405, 59, 161, 356, 25, 255, 158, 49, 2, 25, 13, 14, 3, 11, 4, 17, 2, 1, 2, 2, 1, 3, 3, 3, 0, 1, 4]","[5.0, 21.0, 40.0, 62.0, 62.0, 83.0, 84.0, 86.0, 86.0, 99.0, 110.0, 150.0, 150.0, 199.0, 340.0, 375.0, 400.0, 500.0, 500.0, 1322.0, 2000.0, 2500.0, 2500.0, 3000.0, 3200.0, 5000.0, 5000.0, 5000.0, 5000.0, 5000.0, 10000.0]",37.621944,-122.381944
204,SKINNERS: Revolutionary Ultraportable Footwear with Silver,Footwear,USD,10000.0,654557.0,"Chicago, IL",9624,"[64, 100, 150, 300, 500, 1000, 1000, 999, 471, 500, 250, 800, 800, 800, 404, 150, 200, 200, 200, 200, 71, 50, 50, 80, 70, 70, 29, 10, 10, 15, 15, 10, 5, 2, 4, 4]","[5.0, 29.0, 32.0, 35.0, 35.0, 35.0, 35.0, 35.0, 35.0, 65.0, 65.0, 65.0, 65.0, 65.0, 65.0, 95.0, 95.0, 95.0, 95.0, 95.0, 95.0, 150.0, 150.0, 150.0, 150.0, 150.0, 150.0, 295.0, 295.0, 295.0, 295.0, 295.0, 1400.0, 1400.0, 2500.0, 2500.0]",41.885847,-87.618123
205,Lace Anchors 2.0: A simple design for simple people.,Fashion,USD,9500.0,146288.0,"Anacortes, WA",9565,"[100, 4418, 100, 805, 4118]","[8.0, 10.0, 15.0, 17.0, 20.0]",48.500438,-122.630873
206,Town of Salem - The Card Game,Tabletop Games,USD,10000.0,389005.0,"Austin, TX",9551,"[1644, 6894, 684, 132, 42]","[20.0, 35.0, 65.0, 250.0, 500.0]",30.505972,-97.747187
207,Period Panties Briefs,Fashion,USD,10000.0,404763.0,"Chicago, IL",9550,"[79, 22, 2030, 2849, 1647, 260, 930, 150, 322, 129, 879, 173, 32, 2]","[1.0, 5.0, 13.0, 25.0, 36.0, 46.0, 55.0, 67.0, 70.0, 75.0, 100.0, 117.0, 200.0, 227.0]",41.885847,-87.618123
208,Oculus Rift: Step Into the Game,Gaming Hardware,USD,250000.0,2437429.0,"Long Beach, CA",9522,"[1009, 209, 434, 179, 106, 100, 5640, 859, 66, 216, 40, 20, 7, 7]","[10.0, 15.0, 25.0, 35.0, 75.0, 275.0, 300.0, 335.0, 500.0, 575.0, 850.0, 1400.0, 3000.0, 5000.0]",33.7705,-118.1885
210,Reboot the Suit: Bring Back Neil Armstrong\u2019s Spacesuit,Space Exploration,USD,500000.0,719779.0,"Washington, DC",9477,"[1015, 741, 1985, 742, 104, 135, 116, 1317, 1594, 359, 382, 208, 213, 48, 40, 60, 14, 24, 14, 1, 5, 25, 2, 2, 9]","[1.0, 11.0, 20.0, 25.0, 30.0, 35.0, 40.0, 46.0, 55.0, 75.0, 100.0, 120.0, 200.0, 230.0, 275.0, 300.0, 542.0, 1000.0, 1600.0, 1969.0, 2000.0, 2500.0, 5000.0, 9500.0, 10000.0]",38.912217,-77.017691
211,Slide Camera Sling and Clutch Hand Strap by Peak Design,Product Design,USD,50000.0,861164.0,"San Francisco, CA",9455,"[185, 265, 1628, 1658, 3967, 1713]","[1.0, 15.0, 30.0, 50.0, 80.0, 150.0]",37.621944,-122.381944
212,"""For the Love of Spock"" - A Documentary Film",Documentary,USD,600000.0,662640.0,"Los Angeles, CA",9439,"[1136, 1519, 1542, 2531, 853, 684, 271, 9, 6, 5, 50, 50, 32, 24, 46, 30, 3, 19, 8, 25, 20, 2, 1, 1, 1, 3, 48, 5, 1, 1, 2, 0, 2, 1, 0, 6]","[5.0, 15.0, 35.0, 50.0, 80.0, 100.0, 150.0, 175.0, 175.0, 225.0, 250.0, 250.0, 250.0, 250.0, 300.0, 300.0, 350.0, 375.0, 400.0, 450.0, 475.0, 475.0, 600.0, 600.0, 650.0, 675.0, 1000.0, 1000.0, 1200.0, 1600.0, 2500.0, 3500.0, 3500.0, 6000.0, 6000.0, 10000.0]",33.973093,-118.247896
213,Wizard School,Tabletop Games,USD,15000.0,461583.0,"Missoula, MT",9377,"[2304, 6292, 621, 100, 5]","[20.0, 35.0, 90.0, 250.0, 500.0]",46.856274,-114.025207
215,Hello Ruby,Children's Books,USD,10000.0,380747.0,"New York, NY",9258,"[173, 839, 2067, 4746, 444, 672, 100, 22, 23, 4, 2, 7]","[5.0, 10.0, 20.0, 40.0, 60.0, 70.0, 150.0, 200.0, 250.0, 400.0, 1000.0, 1500.0]",40.74838,-73.996705
216,LIFX: The Light Bulb Reinvented,Technology,USD,100000.0,1314542.0,"San Francisco, CA",9236,"[2300, 1000, 1999, 2300, 330, 150, 300]","[69.0, 99.0, 119.0, 196.0, 294.0, 392.0, 490.0]",37.621944,-122.381944
218,\u3010VAGO\u3011Best travel tool.Give you more than 50% luggage space!,Product Design,USD,30000.0,473098.0,"Los Angeles, CA",9182,"[87, 50, 5032, 857, 300, 50, 1813, 50, 422, 50, 445]","[1.0, 27.0, 31.0, 40.0, 40.0, 52.0, 60.0, 75.0, 87.0, 96.0, 112.0]",33.973093,-118.247896
220,The BASICS Notebook: Simplify and Improve Your Life,Product Design,USD,10000.0,383385.0,"Salt Lake City, UT",9100,"[786, 500, 4823, 2471, 372, 78, 52]","[1.0, 22.0, 27.0, 49.0, 95.0, 140.0, 220.0]",40.755851,-111.896657
223,The SnapRays Guidelight by SnapPower : Illuminate your life,Technology,USD,12000.0,480411.0,"Provo, UT",9086,"[950, 35, 700, 2843, 500, 200, 1851, 160, 300, 528, 200, 763]","[12.0, 15.0, 24.0, 36.0, 40.0, 55.0, 60.0, 75.0, 80.0, 96.0, 100.0, 120.0]",40.231949,-111.675504
224,Penny Arcade Sells Out,Comics,USD,250000.0,528144.0,"Seattle, WA",9069,"[2541, 1148, 1798, 1094, 586, 126, 215, 192, 752, 46, 22, 19, 27, 9, 25, 1, 8, 5, 5, 38, 5, 0, 0, 0, 1, 3, 0, 0, 2, 0, 0, 1, 0]","[1.0, 15.0, 25.0, 35.0, 50.0, 75.0, 100.0, 125.0, 150.0, 150.0, 250.0, 300.0, 300.0, 300.0, 500.0, 750.0, 1000.0, 1000.0, 1500.0, 2000.0, 2500.0, 2500.0, 2500.0, 2500.0, 5000.0, 5000.0, 5000.0, 5000.0, 7500.0, 7500.0, 8000.0, 9999.0, 10000.0]",47.611435,-122.330456
225,The NOMATIC Travel Bag,Product Design,USD,20000.0,1725336.0,"Salt Lake City, UT",9067,"[257, 50, 2299, 3929, 1627, 746, 115]","[1.0, 149.0, 159.0, 169.0, 179.0, 325.0, 475.0]",40.755851,-111.896657
227,Augie and the Green Knight: A Children's Adventure Book,Children's Books,USD,30000.0,384410.0,"Brooklyn, NY",9044,"[987, 4222, 1656, 524, 495, 317, 411, 55, 154, 129, 5, 10, 9]","[10.0, 25.0, 35.0, 50.0, 55.0, 75.0, 85.0, 95.0, 120.0, 150.0, 400.0, 450.0, 500.0]",40.694021,-73.99034
229,CLANG,Video Games,USD,500000.0,526125.0,"Seattle, WA",9023,"[672, 5369, 410, 421, 567, 584, 333, 64, 37, 19, 10, 7, 1, 3, 8, 1]","[10.0, 25.0, 40.0, 50.0, 75.0, 100.0, 150.0, 250.0, 500.0, 1000.0, 1241.0, 1294.0, 2000.0, 5000.0, 10000.0, 10000.0]",47.611435,-122.330456
230,Prynt: the first instant camera case for iPhone and Android,Gadgets,USD,50000.0,1576011.0,"San Francisco, CA",9023,"[507, 102, 20, 200, 799, 5523, 209, 424, 888, 135, 5, 34, 52]","[1.0, 25.0, 49.0, 79.0, 99.0, 99.0, 129.0, 149.0, 199.0, 399.0, 599.0, 999.0, 4999.0]",37.621944,-122.381944
231,Tiny Epic Kingdoms,Tabletop Games,USD,15000.0,286972.0,"Mesa, AZ",8979,"[122, 967, 6789, 65, 811, 5, 67, 3, 96, 10]","[8.0, 16.0, 24.0, 30.0, 44.0, 84.0, 120.0, 130.0, 180.0, 250.0]",33.43174,-111.846931
232,Zombicide: Season 2,Tabletop Games,USD,25000.0,2255018.0,"Atlanta, GA",8944,"[56, 100, 1188, 100, 5958, 50, 1369, 3, 3]","[50.0, 90.0, 100.0, 140.0, 150.0, 205.0, 220.0, 1500.0, 2000.0]",33.7564,-84.3918
234,KeySmart\u2122 - Free Your Pocket,Product Design,USD,6000.0,329862.0,"Chicago, IL",8900,"[44, 100, 200, 2950, 1090, 1206, 854, 499, 171, 678, 816, 212]","[5.0, 17.0, 19.0, 23.0, 25.0, 35.0, 37.0, 39.0, 41.0, 43.0, 45.0, 99.0]",41.885847,-87.618123
235,Knocki: Make Any Surface Smart,Gadgets,USD,35000.0,1144399.0,"Houston, TX",8897,"[533, 100, 2000, 799, 2869, 71, 20, 209, 39, 1811, 16, 2, 268, 6, 3, 63, 0]","[1.0, 59.0, 69.0, 79.0, 79.0, 89.0, 99.0, 189.0, 199.0, 199.0, 239.0, 289.0, 319.0, 379.0, 479.0, 579.0, 10000.0]",29.7652,-95.3657
236,Toejam and Earl: Back in the Groove,Video Games,USD,400000.0,508637.0,"Albany, CA",8873,"[249, 4316, 1019, 760, 860, 84, 343, 220, 70, 383, 147, 95, 195, 23, 19, 0, 0, 1]","[5.0, 15.0, 25.0, 40.0, 60.0, 60.0, 85.0, 100.0, 150.0, 150.0, 200.0, 250.0, 300.0, 500.0, 1000.0, 5000.0, 10000.0, 10000.0]",37.890045,-122.295394
237,Roost Laptop Stand | Free yourself from laptop neck pain,Product Design,USD,475000.0,785724.0,"Denver, CO",8807,"[64, 71, 1464, 2342, 1419, 1607, 634, 906, 222, 60]","[1.0, 29.0, 49.0, 49.0, 74.0, 74.0, 89.0, 89.0, 169.0, 399.0]",39.746931,-105.062036
239,Podo - The First Stick and Shoot Camera: The Sequel,Product Design,USD,50000.0,761130.0,"San Francisco, CA",8802,"[32, 7, 2998, 3226, 1421, 500, 269, 162, 100, 12]","[5.0, 15.0, 39.0, 49.0, 89.0, 89.0, 169.0, 229.0, 229.0, 1849.0]",37.621944,-122.381944
240,The NASA Graphics Standards Manual reissue.,Graphic Design,USD,158000.0,941966.0,"New York, NY",8798,"[7995, 665, 42, 4]","[79.0, 158.0, 395.0, 790.0]",40.74838,-73.996705
242,G-RO: Revolutionary Carry-on Luggage,Product Design,USD,125000.0,3307773.0,"New York, NY",8744,"[416, 84, 199, 219, 249, 847, 5044, 79, 232, 1075, 29, 35, 145]","[1.0, 12.0, 199.0, 219.0, 249.0, 279.0, 279.0, 379.0, 498.0, 498.0, 729.0, 899.0, 899.0]",40.74838,-73.996705
243,Pathfinder Online: A Fantasy Sandbox MMO,Video Games,USD,1000000.0,1091194.0,"Redmond, WA",8732,"[118, 356, 553, 2653, 189, 83, 3637, 717, 38, 44, 188, 37, 6, 5, 1, 6, 1, 0, 1]","[5.0, 5.0, 15.0, 35.0, 50.0, 75.0, 100.0, 175.0, 300.0, 400.0, 500.0, 1000.0, 1200.0, 1500.0, 2500.0, 5000.0, 5000.0, 10000.0, 10000.0]",47.671796,-122.123242
244,WHO THE F*@% IS FRANK ZAPPA?,Documentary,USD,500000.0,1126036.0,"Los Angeles, CA",8688,"[989, 603, 2002, 1551, 871, 214, 636, 379, 300, 500, 65, 78, 12, 20, 76, 23, 11, 3, 5, 2, 0, 0, 0, 0, 7, 4, 1, 1, 7, 0, 1, 0]","[10.0, 25.0, 35.0, 50.0, 100.0, 125.0, 150.0, 200.0, 250.0, 300.0, 350.0, 450.0, 550.0, 650.0, 1000.0, 1250.0, 2500.0, 3000.0, 3000.0, 5000.0, 5001.0, 5002.0, 5003.0, 5004.0, 6000.0, 7500.0, 8000.0, 9000.0, 10000.0, 12000.0, 15000.0, 25000.0]",33.973093,-118.247896
246,The Dresden Files Cooperative Card Game,Tabletop Games,USD,48000.0,549486.0,"Silver Spring, MD",8616,"[175, 1495, 388, 4892, 1475, 76]","[10.0, 39.0, 39.0, 69.0, 69.0, 119.0]",39.019106,-77.007613
247,"Nebia Shower - Better experience, 70% less water",Product Design,USD,100000.0,3126114.0,"San Francisco, CA",8559,"[773, 249, 500, 998, 4573, 18, 50, 120, 420, 617, 3, 5]","[5.0, 249.0, 269.0, 279.0, 299.0, 498.0, 538.0, 569.0, 598.0, 799.0, 5000.0, 10000.0]",37.621944,-122.381944
248,Radiate Athletics: The Future of Sports Apparel,Technology,USD,30000.0,579599.0,"West Chester, PA",8556,"[37, 8, 50, 48, 50, 57, 199, 552, 1199, 527, 679, 129, 199, 202, 780, 312, 334, 43, 131, 635, 6, 287, 21, 251, 678, 146, 8, 6, 258, 26, 4, 123, 216, 21, 53, 159, 86, 5, 2, 1, 0]","[1.0, 5.0, 15.0, 20.0, 24.0, 24.0, 25.0, 25.0, 25.0, 25.0, 25.0, 25.0, 29.0, 29.0, 29.0, 29.0, 29.0, 29.0, 30.0, 35.0, 39.0, 40.0, 40.0, 50.0, 70.0, 70.0, 90.0, 90.0, 99.0, 100.0, 120.0, 125.0, 139.0, 155.0, 179.0, 225.0, 275.0, 500.0, 600.0, 5000.0, 10000.0]",39.984458,-75.596231
249,Star Trek: Axanar,Science Fiction,USD,100000.0,638471.0,"Los Angeles, CA",8548,"[467, 56, 96, 2565, 232, 811, 209, 631, 2052, 475, 384, 77, 50, 100, 31, 10, 2, 3, 4, 5, 5, 3, 4]","[10.0, 15.0, 20.0, 25.0, 30.0, 35.0, 50.0, 65.0, 75.0, 100.0, 125.0, 200.0, 250.0, 350.0, 400.0, 500.0, 500.0, 2000.0, 2500.0, 5000.0, 5000.0, 5000.0, 10000.0]",33.973093,-118.247896
250,"The Menstrual Cup, Reinvented | Lily Cup Compact",Product Design,USD,7800.0,325660.0,"San Jose, CA",8530,"[104, 300, 6521, 289, 150, 607, 350, 84, 43]","[5.0, 29.0, 33.0, 49.0, 58.0, 65.0, 65.0, 79.0, 189.0]",37.3894,-121.8868
252,Code Monkey Save World,Comics,USD,39000.0,340270.0,"New York, NY",8452,"[94, 48, 15, 29, 1383, 2278, 148, 2457, 222, 2, 391, 424, 193, 56, 33, 145, 28, 10, 20, 8, 9, 125, 17, 9, 5, 4, 29, 18, 29, 30, 0, 2, 5, 57, 10, 10, 20, 19, 5, 3, 2, 5, 1, 5, 6, 0, 0]","[3.0, 5.0, 5.0, 10.0, 15.0, 25.0, 30.0, 35.0, 40.0, 40.0, 50.0, 50.0, 50.0, 50.0, 75.0, 80.0, 80.0, 80.0, 80.0, 80.0, 80.0, 100.0, 110.0, 110.0, 110.0, 110.0, 125.0, 150.0, 150.0, 150.0, 150.0, 150.0, 150.0, 160.0, 200.0, 250.0, 300.0, 300.0, 500.0, 500.0, 500.0, 500.0, 500.0, 500.0, 750.0, 3000.0, 10000.0]",40.74838,-73.996705
253,The Lomography Lomo'Instant Camera,Design,USD,100000.0,1118333.0,"New York, NY",8448,"[43, 38, 18, 116, 99, 100, 500, 499, 100, 100, 100, 126, 500, 494, 500, 500, 385, 557, 43, 119, 250, 350, 1055, 1394, 61, 51, 78, 20, 8, 1, 12, 22, 2, 3, 2, 8, 24, 27, 1, 2, 6, 3, 10, 3, 11, 7]","[5.0, 10.0, 20.0, 35.0, 69.0, 69.0, 79.0, 79.0, 89.0, 89.0, 89.0, 89.0, 99.0, 99.0, 99.0, 99.0, 109.0, 109.0, 109.0, 109.0, 119.0, 119.0, 129.0, 129.0, 160.0, 160.0, 190.0, 230.0, 270.0, 270.0, 290.0, 290.0, 320.0, 320.0, 340.0, 340.0, 370.0, 370.0, 400.0, 400.0, 420.0, 420.0, 450.0, 500.0, 700.0, 1300.0]",40.74838,-73.996705
254,Glowing Plants: Natural Lighting with no Electricity,Technology,USD,65000.0,484013.0,"San Francisco, CA",8433,"[426, 179, 1000, 4699, 199, 141, 277, 308, 100, 553, 210, 5, 2, 1]","[5.0, 25.0, 40.0, 40.0, 65.0, 65.0, 80.0, 90.0, 120.0, 150.0, 250.0, 500.0, 5000.0, 10000.0]",37.621944,-122.381944
255,Ghostbusters: The Board Game,Tabletop Games,USD,250000.0,1546269.0,"Lake Forest, CA",8396,"[871, 251, 6951, 170]","[80.0, 115.0, 125.0, 288.0]",33.640015,-117.68819
260,Smarter Stand for iPad,Product Design,USD,10000.0,157638.0,"Los Angeles, CA",8260,"[500, 500, 1999, 775, 2956, 805, 624, 45, 12, 3, 3, 1]","[9.0, 10.0, 11.0, 12.0, 14.0, 27.0, 39.0, 125.0, 339.0, 949.0, 2399.0, 6499.0]",33.973093,-118.247896
261,The Zen Habits Book,Nonfiction,USD,44700.0,224255.0,"San Francisco, CA",8211,"[68, 546, 2734, 200, 4398, 100, 94, 11, 9, 2, 0]","[1.0, 5.0, 11.0, 22.0, 31.0, 98.0, 160.0, 300.0, 1500.0, 1500.0, 10000.0]",37.621944,-122.381944
262,SMART CHARGE KIT - Lightning or Micro USB Kit,Hardware,USD,9999.0,167820.0,"Salt Lake City, UT",8200,"[32, 98, 456, 100, 7456, 44]","[1.0, 5.0, 7.0, 14.0, 19.0, 59.0]",40.755851,-111.896657
263,Legion Meter - Charge your smartphone 92% faster,Technology,USD,10000.0,416268.0,"Sunnyvale, CA",8190,"[37, 2000, 2000, 2000, 2006, 93]","[5.0, 39.0, 44.0, 49.0, 49.0, 69.0]",37.368889,-122.035278
264,"""Chug"" from the team that brought you ""Three Sheets""",Film &amp; Video,USD,500000.0,591804.0,"Los Angeles, CA",8177,"[282, 169, 1505, 2478, 1548, 636, 802, 200, 74, 147, 18, 57, 15, 44, 44, 29, 3, 18, 19, 23, 4, 1, 0, 1, 3, 0, 0]","[1.0, 10.0, 25.0, 35.0, 50.0, 75.0, 100.0, 150.0, 175.0, 225.0, 300.0, 350.0, 400.0, 500.0, 500.0, 500.0, 500.0, 1000.0, 1000.0, 1000.0, 1000.0, 1500.0, 1500.0, 2500.0, 5000.0, 5000.0, 10000.0]",33.973093,-118.247896
266,Descent: Underground,Video Games,USD,600000.0,601773.0,"Austin, TX",8164,"[133, 500, 1321, 2500, 1321, 323, 336, 367, 152, 231, 185, 109, 151, 225, 100, 7, 50, 23, 7, 6, 5, 6, 5, 6]","[5.0, 25.0, 25.0, 30.0, 35.0, 55.0, 60.0, 80.0, 80.0, 85.0, 100.0, 120.0, 150.0, 170.0, 250.0, 400.0, 500.0, 600.0, 1000.0, 1100.0, 2000.0, 2500.0, 5000.0, 10000.0]",30.505972,-97.747187
267,Never tie laces again! ZUBITS magnetic lacing solution 2.0,Product Design,USD,30000.0,411141.0,"San Francisco, CA",8159,"[300, 1250, 2853, 200, 1710, 1322, 481]","[13.0, 15.0, 29.0, 38.0, 43.0, 70.0, 135.0]",37.621944,-122.381944
268,"Sgnl - Make Phone Calls with Your Fingertip, literally.",Wearables,USD,50000.0,1469202.0,"Los Angeles, CA",8117,"[279, 500, 500, 500, 1000, 3078, 500, 499, 827, 77, 294]","[1.0, 99.0, 109.0, 119.0, 129.0, 139.0, 198.0, 219.0, 239.0, 329.0, 399.0]",33.973093,-118.247896
271,Capture Camera Clip v2 by Peak Design,Product Design,USD,100000.0,819108.0,"San Francisco, CA",8090,"[249, 510, 2474, 711, 1347, 500, 250, 836, 915, 250]","[1.0, 50.0, 65.0, 85.0, 85.0, 95.0, 100.0, 105.0, 150.0, 185.0]",37.621944,-122.381944
273,Hub+ for USB-C: Get your MacBook ports back.,Hardware,USD,35000.0,883460.0,"Palo Alto, CA",8019,"[222, 900, 1535, 2020, 3230, 71, 9]","[1.0, 79.0, 79.0, 86.0, 93.0, 699.0, 3999.0]",37.444324,-122.149685
274,Halo Back: Add a back button to your iPhone,Hardware,USD,20000.0,251089.0,"San Francisco, CA",8018,"[500, 1099, 2998, 642, 47, 700, 1048, 601, 44, 173, 8, 48, 9, 44, 2]","[12.0, 14.0, 17.0, 17.0, 17.0, 28.0, 34.0, 42.0, 50.0, 70.0, 80.0, 140.0, 150.0, 280.0, 420.0]",37.621944,-122.381944
275,SCIENCE: Ruining Everything Since 1543 (an SMBC Collection),Comics,USD,20000.0,341667.0,"Brooklyn, NY",8016,"[1147, 1985, 918, 405, 679, 849, 449, 183, 137, 259, 158, 138, 65, 353, 236, 6, 1, 1, 1]","[10.0, 20.0, 25.0, 35.0, 35.0, 40.0, 40.0, 45.0, 60.0, 60.0, 75.0, 90.0, 100.0, 105.0, 145.0, 500.0, 1000.0, 2000.0, 3000.0]",40.694021,-73.99034
276,Hidrate Spark Smart Water Bottle,Hardware,USD,35000.0,627644.0,"Minneapolis, MN",8015,"[45, 13, 440, 4567, 75, 176, 2216, 159, 193, 25, 6, 1, 0]","[5.0, 25.0, 39.0, 45.0, 60.0, 62.0, 87.0, 130.0, 215.0, 425.0, 1000.0, 5000.0, 7000.0]",44.983473,-93.268251
277,Coup Reformation - Kickstarter Edition,Tabletop Games,USD,10000.0,254133.0,"Oakland, CA",7993,"[2843, 229, 557, 25, 2992, 451, 846, 35]","[15.0, 20.0, 23.0, 29.0, 30.0, 35.0, 42.0, 50.0]",37.780595,-122.216587
280,BelayCords - Reversible USB Charging Cords iPhone & Android,Product Design,USD,4000.0,423564.0,"Chapel Hill, NC",7934,"[3000, 942, 2859, 845, 52, 16, 128]","[25.0, 30.0, 55.0, 105.0, 156.0, 206.0, 250.0]",35.920322,-79.037189
281,Bernie Sanders Action Figure,Product Design,USD,15000.0,248063.0,"Brooklyn, NY",7932,"[117, 20, 5340, 20, 983, 456, 825, 10, 136, 0]","[1.0, 15.0, 20.0, 30.0, 40.0, 40.0, 75.0, 80.0, 100.0, 5000.0]",40.694021,-73.99034
282,Dash 4.0 Wallet - The Best RFID Slim Wallet,Design,USD,5000.0,188087.0,"San Francisco, CA",7902,"[1000, 2000, 1904, 101, 2363, 372, 134]","[12.0, 13.0, 14.0, 15.0, 20.0, 37.0, 55.0]",37.621944,-122.381944
284,Nope - Live Free,Technology,USD,500.0,93034.0,"Chicago, IL",7857,"[2592, 938, 2671, 791, 167, 435, 218, 17, 2]","[5.0, 6.0, 10.0, 15.0, 20.0, 25.0, 25.0, 130.0, 270.0]",41.885847,-87.618123
285,Support Team USA in the Giant Robot Duel!,Robots,USD,500000.0,554592.0,"Oakland, CA",7857,"[583, 1495, 139, 418, 1240, 2801, 784, 134, 21, 9, 31, 5, 3, 5, 5]","[5.0, 10.0, 12.0, 15.0, 25.0, 50.0, 150.0, 250.0, 500.0, 750.0, 1000.0, 2500.0, 5000.0, 10000.0, 10000.0]",37.780595,-122.216587
287,NudeAudio Super-M,Hardware,USD,75000.0,839834.0,"San Francisco, CA",7794,"[93, 18, 1000, 2000, 3817, 100, 268, 153, 20, 225, 39, 19, 2, 9, 1, 0, 0]","[1.0, 25.0, 79.0, 89.0, 99.0, 99.0, 124.0, 139.0, 199.0, 270.0, 500.0, 799.0, 999.0, 999.0, 5000.0, 5000.0, 5000.0]",37.621944,-122.381944
289,Pairs: A New Classic Pub Game,Tabletop Games,USD,12000.0,332226.0,"Seattle, WA",7781,"[5, 1660, 1799, 944, 1311, 698, 359, 384, 96, 44, 432, 4]","[5.0, 16.0, 24.0, 33.0, 42.0, 51.0, 60.0, 80.0, 90.0, 100.0, 120.0, 1200.0]",47.611435,-122.330456
290,"JUICIES+ for iPhone, Android, BlackBerry and Windows Phones",Product Design,USD,40000.0,275621.0,"Honolulu, HI",7733,"[999, 2000, 549, 2731, 1406]","[15.0, 18.0, 20.0, 35.0, 65.0]",21.3095,-157.863
294,CST-01: The World's Thinnest Watch,Product Design,USD,200000.0,1026292.0,"Chicago, IL",7658,"[277, 136, 499, 1577, 2674, 2028, 319, 72, 13]","[1.0, 5.0, 99.0, 129.0, 129.0, 129.0, 129.0, 229.0, 1000.0]",41.885847,-87.618123
298,The Tomorrow Girl: Dresden Codak Volume 1,Comics,USD,30000.0,534994.0,"Easthampton, MA",7565,"[860, 136, 184, 1245, 1896, 731, 186, 816, 1099, 118, 44, 43, 60, 22, 43, 0, 0, 0, 4, 6, 10, 0]","[10.0, 15.0, 30.0, 45.0, 60.0, 70.0, 75.0, 80.0, 85.0, 115.0, 125.0, 160.0, 195.0, 250.0, 300.0, 300.0, 300.0, 360.0, 500.0, 750.0, 1000.0, 5000.0]",42.264319,-72.679921
300,OBDLink MX WiFi: A Wireless Gateway to Vehicle OBD Networks,Hardware,USD,35000.0,640698.0,"Phoenix, AZ",7523,"[50, 100, 150, 300, 399, 499, 999, 999, 1000, 2638, 196, 23, 50, 45]","[5.0, 49.0, 59.0, 69.0, 79.0, 79.0, 79.0, 79.0, 79.0, 79.0, 99.0, 119.0, 299.0, 399.0]",33.451,-112.0685
301,TGT (Tight) - A New Kind Of Wallet,Fashion,USD,20000.0,317424.0,"Brooklyn, NY",7521,"[80, 988, 168, 103, 98, 3261, 84, 120, 802, 255, 22, 1131, 51, 48, 81, 28, 94, 29, 7, 2, 18, 4]","[1.0, 16.0, 24.0, 28.0, 28.0, 32.0, 38.0, 42.0, 45.0, 55.0, 55.0, 60.0, 70.0, 75.0, 90.0, 120.0, 130.0, 150.0, 180.0, 240.0, 300.0, 1000.0]",40.694021,-73.99034
302,Fugitive,Tabletop Games,USD,5000.0,228004.0,"Ogden, UT",7514,"[65, 7345, 95]","[1.0, 18.0, 90.0]",41.2443,-112.0072
303,HAND Stylus,Product Design,USD,25000.0,313490.0,"Alameda, CA",7511,"[941, 4350, 518, 401, 1140, 111, 13, 1, 0, 3]","[25.0, 30.0, 30.0, 35.0, 50.0, 180.0, 360.0, 750.0, 1750.0, 3000.0]",37.764783,-122.260516
304,"Town of Salem - Mobile, Steam, Localization",Video Games,USD,30000.0,114197.0,"Austin, TX",7506,"[5947, 858, 338, 283, 19, 15, 0]","[5.0, 25.0, 50.0, 100.0, 250.0, 500.0, 5000.0]",30.505972,-97.747187
305,LVL \u2013 The First Wearable Hydration Monitor,Wearables,USD,50000.0,1186983.0,"Austin, TX",7501,"[162, 199, 228, 1899, 3324, 20, 199, 499, 379, 371, 69, 24, 47]","[3.0, 99.0, 109.0, 119.0, 129.0, 149.0, 198.0, 219.0, 238.0, 249.0, 495.0, 499.0, 545.0]",30.505972,-97.747187
307,iStick\u2122: USB Flash Drive with Lightning for iPhone and iPad,Technology,USD,100000.0,1100629.0,"San Francisco, CA",7495,"[208, 497, 789, 498, 499, 1112, 1296, 499, 848, 49, 991, 107, 36, 8]","[1.0, 65.0, 79.0, 85.0, 99.0, 99.0, 129.0, 149.0, 179.0, 199.0, 249.0, 299.0, 500.0, 1000.0]",37.621944,-122.381944
308,"Sesame. Your key, reinvented.",Robots,USD,100000.0,1428519.0,"Palo Alto, CA",7493,"[188, 465, 501, 1468, 3871, 29, 809, 92, 1, 1]","[1.0, 89.0, 99.0, 139.0, 149.0, 249.0, 279.0, 549.0, 4900.0, 10000.0]",37.444324,-122.149685
310,Code Hero: A Game That Teaches You To Make Games,Video Games,USD,100000.0,170954.0,"San Francisco, CA",7459,"[2726, 2896, 472, 1217, 47, 14, 6, 9, 0, 0, 1, 0, 2]","[1.0, 13.0, 31.0, 42.0, 133.0, 313.0, 1012.0, 1337.0, 1776.0, 2600.0, 3133.0, 4237.0, 10000.0]",37.621944,-122.381944
311,Volt Planner - Reach Your Goals in 2017,Product Design,USD,10000.0,249563.0,"Seattle, WA",7450,"[3259, 1500, 1, 1833, 652, 100, 70, 12]","[1.0, 35.0, 40.0, 40.0, 75.0, 90.0, 180.0, 340.0]",47.611435,-122.330456
313,The Flame in the Flood,Video Games,USD,150000.0,251647.0,"Cambridge, MA",7420,"[207, 999, 3457, 146, 1325, 732, 140, 210, 88, 49, 10, 9, 0, 1]","[1.0, 15.0, 20.0, 25.0, 35.0, 50.0, 70.0, 100.0, 150.0, 250.0, 500.0, 1000.0, 2500.0, 4000.0]",42.377045,-71.125611
315,Night In The Woods,Video Games,USD,50000.0,209375.0,"Pittsburgh, PA",7372,"[206, 3926, 324, 1877, 277, 334, 52, 130, 148, 34, 15, 10, 1, 0]","[1.0, 15.0, 20.0, 25.0, 35.0, 50.0, 75.0, 100.0, 150.0, 250.0, 500.0, 1000.0, 2000.0, 5000.0]",40.474536,-79.952524
316,Blue Laser Lamp- with passive cooling technology,Gadgets,USD,250000.0,502188.0,"Apex, NC",7367,"[105, 2, 28, 2, 500, 998, 13, 2, 2498, 499, 787, 76, 1519, 206, 75, 5, 0, 0, 0]","[1.0, 10.0, 15.0, 29.0, 35.0, 49.0, 54.0, 55.0, 55.0, 55.0, 60.0, 70.0, 70.0, 70.0, 100.0, 500.0, 1000.0, 8000.0, 10000.0]",35.722504,-78.840816
317,Light Table,Software,USD,200000.0,316720.0,"San Francisco, CA",7317,"[45, 4258, 132, 186, 1641, 245, 138, 260, 150, 15, 32, 19, 23, 5, 0, 4]","[15.0, 15.0, 30.0, 50.0, 50.0, 80.0, 100.0, 100.0, 130.0, 200.0, 200.0, 230.0, 500.0, 1000.0, 5000.0, 10000.0]",37.621944,-122.381944
318,Endangered Orphans of Condyle Cove,Tabletop Games,USD,4097.0,355970.0,"Ridgeland, MS",7305,"[175, 421, 4627, 315, 20, 1685, 23, 1, 7, 4, 6, 2]","[1.0, 25.0, 25.0, 55.0, 60.0, 70.0, 80.0, 97.0, 140.0, 225.0, 240.0, 585.0]",32.412165,-90.120697
320,The Undress- Change clothes in public without getting naked!,Apparel,USD,22000.0,615663.0,"San Diego, CA",7297,"[196, 93, 51, 94, 463, 4105, 586, 620, 137, 530, 94, 96, 81, 6, 37]","[5.0, 25.0, 35.0, 65.0, 69.0, 69.0, 89.0, 95.0, 115.0, 135.0, 199.0, 200.0, 260.0, 325.0, 385.0]",32.71852,-117.159316
321,Dice Rings,Games,USD,23000.0,344069.0,"Washington, DC",7293,"[14, 3356, 61, 2388, 597, 271, 432, 100, 4, 5]","[5.0, 15.0, 40.0, 42.0, 70.0, 90.0, 130.0, 200.0, 340.0, 800.0]",38.912217,-77.017691
322,The Ultimate Travel Sleep Solution - Nod Travel Pillow,Product Design,USD,20000.0,307274.0,"Louisville, KY",7280,"[150, 300, 1500, 1820, 544, 2618, 150, 64, 9, 78]","[25.0, 28.0, 30.0, 32.0, 35.0, 46.0, 57.0, 59.0, 62.0, 119.0]",38.2435,-85.7639
323,Vi. The First True Artificial Intelligence Personal Trainer,Wearables,USD,100000.0,1688179.0,"New York, NY",7257,"[362, 400, 4197, 1079, 1110, 25, 11, 3]","[1.0, 179.0, 199.0, 199.0, 359.0, 999.0, 1599.0, 4999.0]",40.74838,-73.996705
324,Anamanaguchi - make ENDLESS FANTASY more than an album!,Chiptune,USD,50000.0,277399.0,"Brooklyn, NY",7253,"[161, 28, 803, 671, 265, 2457, 476, 223, 424, 228, 78, 213, 277, 309, 200, 109, 12, 139, 2, 39, 30, 17, 3, 0, 38, 1, 2, 7, 0, 2, 0, 0, 0]","[1.0, 5.0, 10.0, 15.0, 20.0, 20.0, 30.0, 30.0, 30.0, 35.0, 50.0, 50.0, 60.0, 70.0, 80.0, 80.0, 100.0, 100.0, 250.0, 250.0, 250.0, 265.0, 300.0, 300.0, 300.0, 500.0, 1000.0, 1000.0, 2500.0, 5000.0, 7000.0, 10000.0, 10000.0]",40.694021,-73.99034
325,Near and Far - Storytelling Board Game,Tabletop Games,USD,25000.0,520177.0,"Sandy, UT",7245,"[63, 37, 223, 1612, 1068, 4180]","[3.0, 14.0, 20.0, 50.0, 60.0, 70.0]",40.579379,-111.881625
326,EXPRESS BELT - The #1 Belt for Men,Fashion,USD,12750.0,591860.0,"San Diego, CA",7232,"[51, 199, 2388, 1338, 2354, 886]","[1.0, 44.0, 49.0, 69.0, 89.0, 125.0]",32.71852,-117.159316
327,TUG,Video Games,USD,215000.0,293184.0,"Los Angeles, CA",7231,"[3225, 311, 72, 52, 1272, 2, 241, 388, 11, 379, 498, 3, 290, 25, 1, 90, 43, 5, 33, 30, 50, 34, 64, 34, 10, 1, 3, 0, 1, 0]","[10.0, 15.0, 25.0, 30.0, 30.0, 45.0, 45.0, 45.0, 65.0, 65.0, 65.0, 75.0, 75.0, 95.0, 115.0, 115.0, 125.0, 135.0, 150.0, 180.0, 195.0, 225.0, 275.0, 375.0, 500.0, 1000.0, 1250.0, 2500.0, 5000.0, 8000.0]",33.973093,-118.247896
328,Arduboy - Card Sized Gaming,Gaming Hardware,USD,25000.0,433038.0,"Portland, OR",7221,"[9, 1000, 4012, 100, 100, 1546, 100, 100, 118, 46, 0, 0]","[5.0, 29.0, 39.0, 49.0, 49.0, 69.0, 100.0, 100.0, 179.0, 300.0, 3000.0, 10000.0]",45.443343,-122.775974
329,What We Do In The Shadows: The American Release,Comedy,USD,400000.0,446666.0,"New York, NY",7204,"[423, 557, 649, 119, 896, 1608, 39, 122, 564, 152, 221, 397, 69, 44, 5, 193, 121, 29, 114, 207, 91, 23, 8, 11, 27, 25, 35, 27, 5, 7, 2, 13, 6, 5, 2, 4, 4, 3, 5, 2, 1, 2]","[1.0, 10.0, 20.0, 25.0, 30.0, 40.0, 40.0, 50.0, 50.0, 60.0, 60.0, 65.0, 70.0, 85.0, 85.0, 90.0, 90.0, 90.0, 100.0, 105.0, 125.0, 150.0, 150.0, 160.0, 165.0, 200.0, 225.0, 250.0, 300.0, 300.0, 360.0, 500.0, 600.0, 600.0, 750.0, 1000.0, 1000.0, 1500.0, 3000.0, 5000.0, 7000.0, 10000.0]",40.74838,-73.996705
330,Your shoes just got insanely easy! Zubits make them magnetic,Product Design,USD,29000.0,362033.0,"San Francisco, CA",7204,"[2, 150, 800, 1398, 2403, 1327, 815, 247, 6]","[10.0, 17.0, 19.0, 20.0, 37.0, 54.0, 89.0, 170.0, 500.0]",37.621944,-122.381944
333,The Lizzie Bennet Diaries DVD...and More!,Webseries,USD,60000.0,462405.0,"Missoula, MT",7158,"[303, 119, 637, 62, 80, 3051, 107, 120, 1278, 266, 287, 300, 5, 116, 10, 18, 11, 50, 53, 1, 2]","[10.0, 20.0, 25.0, 30.0, 35.0, 55.0, 65.0, 75.0, 75.0, 85.0, 95.0, 100.0, 105.0, 115.0, 150.0, 200.0, 250.0, 300.0, 300.0, 500.0, 1000.0]",46.856274,-114.025207
335,Religion: Ruining Everything Since 4004 BC,Webcomics,USD,15000.0,377471.0,"Houston, TX",7119,"[1058, 468, 729, 1840, 959, 19, 619, 461, 43, 641, 249, 5]","[10.0, 15.0, 20.0, 30.0, 40.0, 40.0, 50.0, 60.0, 70.0, 100.0, 160.0, 1000.0]",29.7652,-95.3657
337,The Freedom Journal\xa0Accomplish Your #1 Goal in 100 Days,Nonfiction,USD,25000.0,453803.0,"San Diego, CA",7063,"[200, 1105, 449, 4165, 69, 688, 140, 115, 45, 2, 16, 2, 16, 10, 3, 0, 1, 0, 2, 0]","[2.0, 17.0, 27.0, 39.0, 39.0, 75.0, 145.0, 175.0, 325.0, 595.0, 995.0, 1595.0, 2495.0, 2495.0, 2995.0, 6995.0, 10000.0, 10000.0, 10000.0, 10000.0]",32.71852,-117.159316
338,The Resistance - Hostile Intent & Hidden Agenda,Tabletop Games,USD,10000.0,171254.0,"Oakland, CA",7058,"[4792, 585, 1568, 94]","[20.0, 25.0, 28.0, 34.0]",37.780595,-122.216587
339,Small World 2: The Return!,Video Games,USD,150000.0,394019.0,"Los Altos, CA",7044,"[469, 864, 3328, 1202, 1163, 6]","[1.0, 8.0, 15.0, 40.0, 60.0, 600.0]",37.381432,-122.125754
340,"Hero Realms, a Deckbuilding Adventure Card Game",Tabletop Games,USD,100000.0,555661.0,"Framingham, MA",6997,"[268, 18, 959, 666, 5062, 4, 0, 0]","[1.0, 20.0, 25.0, 45.0, 72.0, 1000.0, 5000.0, 10000.0]",42.300665,-71.425486
342,MicroView: Chip-sized Arduino with built-in OLED Display!,DIY Electronics,USD,25000.0,573760.0,"San Francisco, CA",6972,"[10, 143, 20, 2332, 153, 3150, 332, 333, 26, 275, 64, 28, 4, 3]","[20.0, 45.0, 45.0, 55.0, 55.0, 95.0, 95.0, 95.0, 95.0, 140.0, 140.0, 289.0, 530.0, 1350.0]",37.621944,-122.381944
343,SolForge Digital Trading Card Game,Video Games,USD,250000.0,429715.0,"Oceanside, CA",6971,"[725, 327, 2571, 186, 166, 167, 1673, 531, 325, 57, 24, 51, 62, 46, 8, 20, 2, 2, 2, 1]","[5.0, 15.0, 25.0, 32.0, 40.0, 50.0, 60.0, 100.0, 115.0, 175.0, 180.0, 200.0, 250.0, 500.0, 1000.0, 1980.0, 2500.0, 3500.0, 5000.0, 10000.0]",33.1951,-117.3776
344,Evolution: CLIMATE (a stand-alone boardgame),Tabletop Games,USD,20000.0,337325.0,"Washington, DC",6969,"[77, 90, 62, 3484, 236, 2745, 260]","[1.0, 5.0, 15.0, 25.0, 25.0, 55.0, 55.0]",38.912217,-77.017691
345,Tropes vs. Women in Video Games,Webseries,USD,6000.0,158922.0,"San Francisco, CA",6968,"[1128, 1680, 2635, 522, 165, 38, 13]","[1.0, 10.0, 25.0, 50.0, 100.0, 250.0, 500.0]",37.621944,-122.381944
347,Tex Murphy - Project Fedora,Video Games,USD,450000.0,598104.0,"Salt Lake City, UT",6963,"[25, 3604, 33, 994, 165, 312, 91, 19, 734, 93, 27, 208, 55, 89, 216, 99, 35, 28, 9, 7, 6]","[5.0, 15.0, 28.0, 30.0, 45.0, 50.0, 75.0, 88.0, 100.0, 135.0, 150.0, 150.0, 160.0, 188.0, 250.0, 500.0, 750.0, 1000.0, 2500.0, 5000.0, 10000.0]",40.755851,-111.896657
348,"Octopus by Joy, the training wheels for good habits!",Wearables,USD,50000.0,777777.0,"San Francisco, CA",6954,"[103, 250, 1587, 750, 538, 250, 249, 1249, 29, 1000, 145, 250, 450, 17]","[5.0, 49.0, 59.0, 59.0, 69.0, 89.0, 98.0, 99.0, 109.0, 118.0, 138.0, 178.0, 198.0, 999.0]",37.621944,-122.381944
350,CHASM,Video Games,USD,150000.0,191897.0,"Baltimore, MD",6938,"[2517, 2499, 774, 945, 65, 9, 5, 5, 1, 0]","[15.0, 25.0, 30.0, 50.0, 100.0, 250.0, 500.0, 1000.0, 2500.0, 5000.0]",39.29463,-76.625203
351,Mare Nostrum - Empires,Tabletop Games,USD,15000.0,679255.0,"Fremont, OH",6937,"[21, 3116, 2308, 499, 500, 92, 92, 108, 68, 72]","[5.0, 60.0, 65.0, 70.0, 71.0, 120.0, 125.0, 130.0, 180.0, 195.0]",41.349792,-83.118095
352,Villages of Valeria,Tabletop Games,USD,8000.0,214053.0,"Seattle, WA",6937,"[82, 1170, 5611, 13]","[8.0, 17.0, 23.0, 249.0]",47.611435,-122.330456
355,StoneTether - The Smallest Tracking Device at Long Range,Gadgets,USD,15000.0,366199.0,"Rocklin, CA",6927,"[27, 600, 2273, 142, 1606, 1613, 341, 254]","[5.0, 18.0, 20.0, 25.0, 40.0, 80.0, 120.0, 145.0]",38.791898,-121.243406
357,Doublesix Dice: Roll Better,Tabletop Games,USD,3246.0,133495.0,"Washington, DC",6916,"[250, 250, 250, 1549, 2193, 169, 297, 1924]","[6.0, 8.0, 8.0, 10.0, 10.0, 10.0, 10.0, 25.0]",38.912217,-77.017691
358,Potato Salad,Food,USD,10.0,55492.0,"Columbus, OH",6911,"[2084, 1253, 1272, 589, 464, 4, 289, 585, 106, 21]","[1.0, 2.0, 3.0, 5.0, 10.0, 20.0, 25.0, 35.0, 50.0, 110.0]",40.105155,-83.010069
359,THE MAGIC COIN POUCH - handle coins better,Accessories,USD,10000.0,166910.0,"Woodmere, NY",6897,"[23, 100, 2539, 130, 200, 2432, 523, 712, 79, 91, 30, 20]","[2.0, 9.0, 11.0, 13.0, 20.0, 22.0, 30.0, 40.0, 50.0, 75.0, 105.0, 180.0]",40.63262,-73.714146
360,JUMP Cable by Native Union,Design,USD,40000.0,372039.0,"Hermosa Beach, CA",6893,"[111, 150, 250, 500, 5851]","[1.0, 30.0, 35.0, 35.0, 40.0]",33.864309,-118.395511
361,Boss Monster: The Next Level,Tabletop Games,USD,25000.0,335618.0,"Torrance, CA",6891,"[870, 1985, 3956]","[25.0, 32.0, 55.0]",33.826817,-118.31183
362,Blink: Wire-Free HD Home Monitoring & Alert System,Hardware,USD,200000.0,1069386.0,"Boston, MA",6879,"[89, 100, 25, 500, 862, 100, 25, 500, 2096, 200, 1365, 25, 480, 354, 15, 15, 6]","[5.0, 49.0, 49.0, 59.0, 69.0, 89.0, 89.0, 99.0, 119.0, 149.0, 169.0, 199.0, 269.0, 269.0, 1000.0, 1500.0, 2500.0]",42.357603,-71.068432
364,THE AGENTS - A Double-edged Cards Game,Tabletop Games,USD,6000.0,275368.0,"New York, NY",6791,"[95, 225, 250, 574, 250, 234, 250, 430, 571, 3441, 175, 50, 30, 146, 7, 13, 10, 8, 8, 6]","[1.0, 5.0, 15.0, 18.0, 20.0, 23.0, 25.0, 28.0, 33.0, 36.0, 50.0, 60.0, 90.0, 100.0, 150.0, 150.0, 200.0, 200.0, 300.0, 400.0]",40.74838,-73.996705
365,Luminoodle: Versatile USB Lighting Solution,Product Design,USD,10000.0,388464.0,"Salt Lake City, UT",6768,"[500, 2041, 500, 519, 1807, 830, 538]","[14.0, 19.0, 34.0, 35.0, 39.0, 76.0, 156.0]",40.755851,-111.896657
366,"Foldio2, \u201cBIGGER & SMARTER\u201d",Product Design,USD,50000.0,541991.0,"Los Angeles, CA",6729,"[85, 300, 6321]","[1.0, 55.0, 65.0]",33.973093,-118.247896
367,SolarPuff: A Unique Little Solar Light,Product Design,USD,25000.0,446940.0,"New York, NY",6718,"[14, 61, 692, 81, 1414, 81, 1009, 325, 615, 446, 637, 778, 74, 135, 142, 116, 29, 1, 1]","[5.0, 10.0, 20.0, 25.0, 25.0, 25.0, 50.0, 50.0, 50.0, 50.0, 75.0, 75.0, 125.0, 125.0, 180.0, 235.0, 480.0, 1900.0, 7000.0]",40.74838,-73.996705
368,The NYCTA Graphics\xa0Standards Manual reissue,Graphic Design,USD,108000.0,802812.0,"New York, NY",6718,"[182, 500, 500, 500, 2000, 1653, 301, 249, 16, 250, 334, 71, 101, 15]","[3.0, 98.0, 118.0, 118.0, 118.0, 118.0, 133.0, 138.0, 156.0, 158.0, 158.0, 161.0, 182.0, 188.0]",40.74838,-73.996705
369,Litographs Tattoos: Wearable Tributes to Iconic Books,Product Design,USD,7500.0,50949.0,"Cambridge, MA",6688,"[2116, 2828, 1132, 100, 415, 86]","[1.0, 3.0, 15.0, 20.0, 30.0, 40.0]",42.377045,-71.125611
371,Storium \u2014 The Online Storytelling Game,Games,USD,25000.0,251362.0,"San Jose, CA",6676,"[1276, 1611, 2769, 500, 255, 10, 127, 10, 2, 3, 0]","[10.0, 20.0, 40.0, 60.0, 90.0, 150.0, 150.0, 750.0, 1000.0, 2500.0, 2500.0]",37.3894,-121.8868
372,Mint Works - The pocket-sized worker placement game,Tabletop Games,USD,5000.0,89165.0,"Lincoln, NE",6654,"[33, 247, 5346, 26, 723, 128, 50, 25, 56, 4, 11]","[1.0, 10.0, 10.0, 19.0, 19.0, 28.0, 45.0, 45.0, 45.0, 90.0, 90.0]",40.8169,-96.7103
373,baKblade 2.0 - the Ultimate DIY Back & Body Shaver,Product Design,USD,50000.0,316581.0,"Chicago, IL",6652,"[16, 1217, 1349, 1781, 134, 50, 1826, 197, 28, 30, 4]","[5.0, 24.0, 29.0, 35.0, 39.0, 45.0, 49.0, 56.0, 89.0, 108.0, 169.0]",41.885847,-87.618123
374,Super Dungeon Explore: Legends,Tabletop Games,USD,80000.0,1290522.0,"Boise, ID",6611,"[70, 136, 571, 1416, 2402, 1240]","[45.0, 60.0, 150.0, 150.0, 200.0, 300.0]",43.6154,-116.2161
376,Super Dungeon Explore: Forgotten King,Tabletop Games,USD,75000.0,1151889.0,"Denver, CO",6589,[6432],[100.0],39.746931,-105.062036
378,Snatoms! The Magnetic Molecular Modeling Kit,Product Design,USD,42000.0,519851.0,"Los Angeles, CA",6581,"[316, 94, 89, 173, 1635, 632, 232, 221, 1070, 17, 14, 377, 1016, 102, 186, 128, 13, 42, 53, 18, 13, 1]","[4.0, 7.0, 30.0, 35.0, 42.0, 49.0, 67.0, 72.0, 72.0, 74.0, 79.0, 84.0, 89.0, 98.0, 102.0, 119.0, 121.0, 142.0, 210.0, 242.0, 420.0, 9942.0]",33.973093,-118.247896
379,SAURIAN - An open world dinosaur survival experience,Video Games,USD,55000.0,220709.0,"Duluth, MN",6570,"[48, 63, 3516, 489, 1198, 99, 100, 100, 482, 298, 49, 20, 39, 11, 3, 3, 3, 5, 6, 10, 0]","[1.0, 5.0, 15.0, 20.0, 30.0, 40.0, 40.0, 40.0, 60.0, 100.0, 200.0, 200.0, 210.0, 300.0, 300.0, 400.0, 500.0, 500.0, 600.0, 1200.0, 1200.0]",47.094431,-91.846731
380,Twilight Struggle Digital Edition,Video Games,USD,50000.0,391047.0,"Hanford, CA",6566,"[11, 240, 1140, 568, 2397, 42, 150, 100, 663, 100, 50, 50, 1019, 3, 0]","[5.0, 10.0, 15.0, 25.0, 30.0, 35.0, 65.0, 65.0, 75.0, 130.0, 130.0, 130.0, 150.0, 500.0, 500.0]",36.331419,-119.649094
382,Remee - The REM enhancing Lucid Dreaming Mask,Technology,USD,35000.0,572891.0,"Brooklyn, NY",6557,"[148, 75, 33, 5273, 590, 53, 192, 79, 25, 7]","[1.0, 5.0, 15.0, 80.0, 100.0, 140.0, 160.0, 180.0, 220.0, 700.0]",40.694021,-73.99034
383,Cubetto - Hands on coding for ages 3 and up,Hardware,USD,100000.0,1596457.0,"San Francisco, CA",6553,"[300, 119, 58, 101, 200, 199, 498, 1648, 3234, 88]","[5.0, 25.0, 45.0, 65.0, 145.0, 165.0, 175.0, 195.0, 245.0, 995.0]",37.621944,-122.381944
384,SELF Journal: Your Daily Structure for Success,Product Design,USD,15000.0,322695.0,"New York, NY",6531,"[685, 12, 250, 2605, 602, 250, 1486, 97, 414, 46, 31, 41]","[1.0, 14.0, 23.0, 26.0, 38.0, 45.0, 49.0, 89.0, 97.0, 109.0, 189.0, 229.0]",40.74838,-73.996705
385,oneOeight,Film &amp; Video,USD,108000.0,430943.0,"Seattle, WA",6511,"[188, 93, 127, 1755, 478, 2246, 136, 596, 262, 141, 98, 19, 269, 6, 2, 5]","[1.0, 5.0, 10.0, 15.0, 25.0, 40.0, 75.0, 108.0, 125.0, 145.0, 150.0, 250.0, 275.0, 500.0, 1000.0, 5000.0]",47.611435,-122.330456
386,"BRIDEGROOM - A Love Story, Unequaled",Documentary,USD,300000.0,384375.0,"Los Angeles, CA",6508,"[949, 468, 2513, 715, 364, 36, 49, 22, 31, 7, 4, 8]","[5.0, 15.0, 25.0, 50.0, 100.0, 150.0, 250.0, 500.0, 1000.0, 2500.0, 5000.0, 10000.0]",33.973093,-118.247896
387,The World's First Heated Down Jacket w/ 6X Mobile Charging,Wearables,USD,100000.0,1330293.0,"Provo, UT",6480,"[87, 15, 12, 4, 1, 2, 6, 500, 200, 256, 28, 28, 15, 377, 145, 500, 500, 189, 766, 19, 57, 23, 52, 16, 458, 1150, 85, 230, 165, 160, 286, 27, 40, 17, 17, 4, 4, 8, 4, 1, 0]","[1.0, 5.0, 25.0, 45.0, 50.0, 67.0, 70.0, 89.0, 95.0, 95.0, 97.0, 99.0, 99.0, 119.0, 129.0, 159.0, 162.0, 165.0, 172.0, 179.0, 185.0, 185.0, 189.0, 189.0, 195.0, 199.0, 254.0, 258.0, 320.0, 324.0, 389.0, 486.0, 585.0, 648.0, 783.0, 810.0, 972.0, 979.0, 1175.0, 2052.0, 5000.0]",40.231949,-111.675504
388,Decentralize the web with Diaspora,Software,USD,10000.0,200641.0,"New York, NY",6479,"[1473, 1083, 2606, 394, 223, 64, 5, 4]","[5.0, 10.0, 25.0, 50.0, 100.0, 350.0, 1000.0, 2000.0]",40.74838,-73.996705
389,I DRAW COMICS Sketchbook & Reference Guide,Comics,USD,10000.0,245870.0,"Chicago, IL",6466,"[82, 5145, 407, 500, 103, 131, 10, 15, 20, 10, 10, 5, 1, 1, 1, 1, 0]","[1.0, 25.0, 35.0, 50.0, 75.0, 100.0, 150.0, 175.0, 200.0, 225.0, 250.0, 300.0, 400.0, 500.0, 1200.0, 1700.0, 1700.0]",41.885847,-87.618123
390,The Newest Hottest Spike Lee Joint,Narrative Film,USD,1250000.0,1418910.0,"Brooklyn, NY",6421,"[601, 550, 100, 152, 379, 600, 72, 100, 25, 591, 396, 198, 99, 14, 12, 9, 4, 4, 8, 10, 4, 189, 448, 128, 14, 159, 77, 41, 61, 16, 33, 5, 9, 184, 6, 11, 15, 37, 4, 6, 14, 68, 2, 20, 5, 9, 15, 121, 56, 5, 2, 2, 1, 9, 4, 30, 1, 0, 0, 1, 7, 5, 3, 1, 1, 0, 1, 30, 3, 0, 14, 3, 5, 19, 4, 0, 0, 29, 7, 0, 1, 0]","[5.0, 5.0, 5.0, 5.0, 10.0, 10.0, 10.0, 15.0, 15.0, 20.0, 20.0, 25.0, 25.0, 25.0, 25.0, 25.0, 30.0, 30.0, 30.0, 30.0, 30.0, 40.0, 50.0, 50.0, 50.0, 50.0, 75.0, 75.0, 75.0, 75.0, 75.0, 75.0, 75.0, 100.0, 100.0, 100.0, 100.0, 100.0, 100.0, 100.0, 125.0, 150.0, 150.0, 200.0, 200.0, 200.0, 200.0, 250.0, 250.0, 250.0, 250.0, 300.0, 300.0, 500.0, 500.0, 500.0, 500.0, 500.0, 500.0, 500.0, 750.0, 750.0, 750.0, 750.0, 750.0, 750.0, 750.0, 1000.0, 1000.0, 1500.0, 2000.0, 2500.0, 3000.0, 5000.0, 5000.0, 5000.0, 5000.0, 10000.0, 10000.0, 10000.0, 10000.0, 10000.0]",40.694021,-73.99034
392,Cosmic Star Heroine (Sci-Fi/Spy RPG) for PC/Mac/PS4/Vita,Video Games,USD,100000.0,132689.0,"Lake Arrowhead, CA",6414,"[102, 3457, 477, 722, 659, 443, 184, 148, 114, 45, 29, 3, 0, 6, 1, 4, 0, 1, 0, 3]","[1.0, 10.0, 15.0, 20.0, 25.0, 30.0, 40.0, 50.0, 75.0, 100.0, 100.0, 200.0, 350.0, 350.0, 350.0, 500.0, 500.0, 750.0, 1500.0, 3000.0]",34.248333,-117.188333
394,PiCO- Titanium Micro Bottle Opener,Product Design,USD,3000.0,139768.0,"Raleigh, NC",6362,"[75, 3631, 200, 2025, 333, 66]","[9.0, 11.0, 16.0, 28.0, 56.0, 65.0]",35.772701,-78.632439
395,New Studio Album from Toad the Wet Sprocket!,Rock,USD,50000.0,264762.0,"Santa Barbara, CA",6304,"[134, 527, 1854, 2178, 512, 312, 180, 5, 12, 190, 31, 35, 90, 66, 31, 71, 43, 4, 5, 5, 0, 0]","[1.0, 10.0, 15.0, 25.0, 50.0, 50.0, 50.0, 75.0, 75.0, 100.0, 100.0, 125.0, 150.0, 200.0, 250.0, 250.0, 500.0, 1500.0, 1500.0, 1500.0, 5000.0, 10000.0]",34.419668,-119.70782
396,"Solar Paper, the world's thinnest and lightest solar charger",Gadgets,USD,50000.0,1021583.0,"Chicago, IL",6297,"[227, 300, 300, 328, 299, 298, 379, 499, 498, 1000, 895, 100, 100, 300, 677, 50, 10, 0]","[1.0, 69.0, 79.0, 89.0, 99.0, 109.0, 119.0, 129.0, 139.0, 139.0, 149.0, 180.0, 240.0, 240.0, 240.0, 450.0, 1000.0, 10000.0]",41.885847,-87.618123
397,Defense Grid 2,Video Games,USD,250000.0,271726.0,"Bellevue, WA",6291,"[2852, 500, 950, 219, 498, 209, 5, 14, 114, 5, 11, 47, 240, 120, 16, 16, 100, 75, 14, 53, 3, 24, 24, 25, 31, 3, 5, 10, 2, 0, 0, 0]","[15.0, 20.0, 30.0, 50.0, 55.0, 60.0, 70.0, 75.0, 80.0, 90.0, 95.0, 100.0, 105.0, 106.0, 107.0, 108.0, 110.0, 120.0, 150.0, 175.0, 195.0, 205.0, 220.0, 225.0, 225.0, 250.0, 325.0, 500.0, 1000.0, 2000.0, 5000.0, 10000.0]",47.619899,-122.207371
399,Imbue - The Magnetic Tea Infusing Vessel,Product Design,USD,20000.0,362679.0,"Seattle, WA",6248,"[100, 3403, 35, 2405, 11, 214, 32]","[27.0, 29.0, 56.0, 56.0, 140.0, 140.0, 280.0]",47.611435,-122.330456
400,Slim: The Thinnest Wallet Ever,Product Design,USD,10000.0,203488.0,"Minneapolis, MN",6237,"[250, 4969, 650, 330]","[20.0, 25.0, 50.0, 100.0]",44.983473,-93.268251
405,The Cosmonaut | A Wide-Grip Stylus for Touch Screens,Design,USD,50000.0,134236.0,"New York, NY",6192,"[3000, 2623, 509]","[1.0, 25.0, 50.0]",40.74838,-73.996705
408,BASICS: Slim Minimalist Wallet with easy access to all Cards,Accessories,USD,10000.0,171315.0,"Salt Lake City, UT",6158,"[7, 200, 100, 2817, 758, 1816, 364, 74]","[5.0, 12.0, 16.0, 18.0, 20.0, 30.0, 55.0, 100.0]",40.755851,-111.896657
410,The Lampster | A Lamp with Attitude,Design,USD,30000.0,1327559.0,"San Francisco, CA",6148,"[75, 1769, 75, 700, 75, 2932, 93, 80, 255]","[139.0, 149.0, 159.0, 169.0, 169.0, 179.0, 349.0, 525.0, 595.0]",37.621944,-122.381944
411,Backbone: The world's FIRST complete smart posture support!,Wearables,USD,24999.0,467833.0,"San Francisco, CA",6146,"[104, 4185, 716, 37, 503, 11, 315, 216, 36, 3]","[1.0, 49.0, 49.0, 49.0, 69.0, 69.0, 99.0, 119.0, 239.0, 1199.0]",37.621944,-122.381944
412,Evil Dead 2: The Official Board Game,Tabletop Games,USD,70000.0,722622.0,"Bellingham, WA",6143,"[79, 30, 141, 1996, 3112, 573, 14, 30, 32, 17, 3, 4, 1, 3]","[5.0, 10.0, 60.0, 70.0, 80.0, 175.0, 180.0, 245.0, 280.0, 500.0, 500.0, 1000.0, 1750.0, 2500.0]",48.748957,-122.488676
413,Province - A Competitive Building Microgame for 2 Players,Tabletop Games,USD,5000.0,48339.0,"Seattle, WA",6138,"[4751, 956, 189, 226, 11]","[5.0, 10.0, 15.0, 20.0, 50.0]",47.611435,-122.330456
415,RiffTrax Wants to Riff TWILIGHT Live in Theaters Nationwide!,Film &amp; Video,USD,55000.0,264860.0,"San Diego, CA",6113,"[163, 114, 101, 90, 708, 472, 427, 286, 1134, 889, 374, 334, 87, 273, 161, 310, 19, 20, 20, 19, 4, 1, 15, 4]","[2.0, 5.0, 5.0, 5.0, 10.0, 15.0, 20.0, 25.0, 30.0, 35.0, 40.0, 50.0, 60.0, 75.0, 100.0, 125.0, 200.0, 200.0, 225.0, 225.0, 1000.0, 1000.0, 1500.0, 2000.0]",32.71852,-117.159316
416,Noke: The World's Smartest Padlock,Gadgets,USD,100000.0,652828.0,"Draper, UT",6108,"[2171, 1340, 852, 826, 380, 153, 129, 44, 41, 28]","[59.0, 79.0, 108.0, 138.0, 145.0, 195.0, 239.0, 319.0, 449.0, 599.0]",40.504599,-111.88096
417,Xia: Embers of a Forsaken Star,Tabletop Games,USD,40000.0,459147.0,"Lincoln City, OR",6100,"[129, 2183, 1925, 716, 1133]","[1.0, 39.0, 59.0, 115.0, 135.0]",44.968139,-123.99556
418,Hero-U: Rogue to Redemption by Corey and Lori Ann Cole,Video Games,USD,400000.0,409150.0,"San Francisco, CA",6093,"[69, 3299, 893, 599, 156, 284, 145, 98, 186, 57, 39, 126, 33, 6, 19, 5, 3, 3, 0, 2]","[5.0, 20.0, 35.0, 50.0, 65.0, 75.0, 100.0, 125.0, 150.0, 175.0, 200.0, 250.0, 500.0, 1000.0, 1050.0, 2000.0, 2500.0, 2500.0, 5000.0, 7500.0]",37.621944,-122.381944
419,Burgle Bros. - A Cooperative Heist Boardgame,Tabletop Games,USD,10000.0,228526.0,"Mission Viejo, CA",6093,"[118, 5441, 427, 50, 12]","[5.0, 29.0, 34.0, 99.0, 209.0]",33.6,-117.6711
421,NEEO - The Thinking Remote,Hardware,USD,50000.0,1558280.0,"Cupertino, CA",6081,"[159, 10, 136, 150, 995, 500, 500, 994, 1136, 505, 333, 56, 176, 158, 193, 1, 1, 1, 1, 1, 1, 1, 1, 1, 0, 6, 18, 1, 3]","[1.0, 25.0, 148.0, 199.0, 219.0, 219.0, 219.0, 219.0, 229.0, 229.0, 239.0, 249.0, 319.0, 419.0, 438.0, 881.0, 882.0, 883.0, 884.0, 885.0, 886.0, 887.0, 888.0, 889.0, 1000.0, 1199.0, 1800.0, 7500.0, 10000.0]",37.317363,-122.038604
422,Lumos - A Next Generation Bicycle Helmet,Technology,USD,125000.0,809551.0,"Boston, MA",6072,"[136, 40, 500, 2500, 53, 1523, 77, 903, 72, 45, 45, 43, 54, 5]","[5.0, 15.0, 85.0, 99.0, 99.0, 99.0, 119.0, 190.0, 199.0, 219.0, 250.0, 285.0, 380.0, 2500.0]",42.357603,-71.068432
423,ProSounds X-Pro Hearing Protection,Design,USD,15000.0,235152.0,"Draper, UT",6070,"[29, 195, 5, 2818, 2439, 8, 40, 489, 19, 13]","[1.0, 17.0, 17.0, 17.0, 32.0, 35.0, 75.0, 75.0, 325.0, 325.0]",40.504599,-111.88096
426,Teenage Mutant Ninja Turtles: Shadows of the Past Board Game,Tabletop Games,USD,250000.0,862211.0,"San Diego, CA",6033,"[998, 503, 4182, 95, 21]","[80.0, 90.0, 150.0, 280.0, 750.0]",32.71852,-117.159316
429,Qmote: The Water-Resistant Internet Remote for Smartphones,Gadgets,USD,20000.0,219616.0,"Santa Ana, CA",5999,"[100, 2927, 100, 1182, 99, 163, 1123, 222, 35, 4]","[15.0, 19.0, 29.0, 35.0, 39.0, 45.0, 50.0, 69.0, 80.0, 980.0]",33.75016,-117.857665
430,Flag - the app that prints and mails your photos for free.,Technology,USD,100000.0,169187.0,"Los Angeles, CA",5989,"[1761, 500, 1832, 1066, 368, 49, 245, 21, 15, 18, 6, 0, 6, 1, 0]","[10.0, 20.0, 20.0, 30.0, 50.0, 100.0, 100.0, 100.0, 200.0, 250.0, 500.0, 1000.0, 1000.0, 5000.0, 10000.0]",33.973093,-118.247896
431,"Digispark - The tiny, Arduino enabled, usb dev board!",DIY Electronics,USD,5000.0,313218.0,"Portland, OR",5964,"[100, 640, 408, 3335, 20, 915, 15, 300, 116, 12, 5, 38, 5, 2]","[10.0, 12.0, 21.0, 28.0, 40.0, 45.0, 80.0, 85.0, 100.0, 150.0, 200.0, 205.0, 500.0, 1000.0]",45.443343,-122.775974
433,MAGNETIC: Paper That Sticks to Walls,Product Design,CAD,15000.0,295128.0,"San Francisco, CA",5955,"[99, 1997, 1692, 916, 84, 121, 774, 130, 118, 0]","[0.8, 7.0, 22.0, 23.0, 36.0, 39.0, 68.0, 125.0, 217.0, 402.0]",37.621944,-122.381944
435,MONKII BARS 2 \u2014 A Gym You Can Take Anywhere,Product Design,USD,50000.0,1073512.0,"Boulder, CO",5938,"[27, 250, 521, 349, 2514, 250, 1681, 7, 100, 133, 10, 6]","[24.0, 98.0, 119.0, 149.0, 169.0, 175.0, 198.0, 249.0, 265.0, 299.0, 500.0, 2000.0]",40.049733,-105.21426
436,The Dwarves - A New Storydriven Fantasy RPG,Video Games,USD,260000.0,310091.0,"Boston, MA",5925,"[77, 500, 1806, 249, 1056, 239, 602, 123, 252, 145, 100, 392, 50, 25, 114, 12, 10, 65, 10, 6, 7, 12, 4, 8, 2, 1]","[5.0, 20.0, 25.0, 30.0, 35.0, 40.0, 45.0, 50.0, 50.0, 75.0, 85.0, 95.0, 110.0, 110.0, 150.0, 165.0, 165.0, 250.0, 265.0, 265.0, 350.0, 750.0, 850.0, 1250.0, 2000.0, 3500.0]",42.357603,-71.068432
437,OMORI,Video Games,USD,22000.0,203300.0,"Los Angeles, CA",5910,"[110, 3648, 256, 899, 278, 285, 178, 157, 13, 44, 18, 5, 1]","[1.0, 15.0, 20.0, 30.0, 40.0, 75.0, 100.0, 135.0, 200.0, 220.0, 350.0, 600.0, 1000.0]",33.973093,-118.247896
438,CRYAMORE!,Video Games,USD,60000.0,242309.0,"Chicago, IL",5909,"[500, 2536, 472, 1055, 100, 300, 272, 201, 34, 14, 161, 25, 45, 103, 4, 7, 6, 4]","[10.0, 15.0, 20.0, 30.0, 40.0, 50.0, 70.0, 100.0, 115.0, 115.0, 120.0, 150.0, 250.0, 270.0, 600.0, 750.0, 1200.0, 1500.0]",41.885847,-87.618123
439,Pocket Tripod | The only phone tripod you need.,Product Design,USD,6000.0,178649.0,"Irvine, CA",5887,"[125, 49, 150, 2600, 468, 1350, 764, 86, 276]","[1.0, 2.0, 15.0, 18.0, 22.0, 29.0, 36.0, 66.0, 69.0]",33.7357,-117.7672
440,"""Viceroy"" Fantasy Pyramid Card/Board Game 1-4 Players 45 Min",Tabletop Games,USD,10000.0,267830.0,"Layton, UT",5887,"[645, 745, 750, 700, 750, 650, 749, 199, 55, 55, 50, 70, 80, 50, 33, 2, 49, 29, 30, 32, 22, 46, 28, 1, 30]","[22.0, 22.0, 22.0, 22.0, 22.0, 22.0, 22.0, 22.0, 40.0, 40.0, 40.0, 40.0, 40.0, 40.0, 40.0, 40.0, 80.0, 80.0, 80.0, 80.0, 80.0, 80.0, 80.0, 80.0, 150.0]",41.084576,-111.927365
441,Jane Jensen's Moebius and Pinkerton Road Studio,Video Games,USD,300000.0,435316.0,"Lancaster, PA",5836,"[1789, 187, 1856, 764, 18, 386, 88, 58, 132, 65, 19, 54, 28, 14, 117, 68, 19, 15, 27, 5, 0, 2, 3]","[16.0, 30.0, 50.0, 51.0, 99.0, 100.0, 101.0, 102.0, 115.0, 200.0, 215.0, 224.0, 225.0, 239.0, 250.0, 265.0, 500.0, 515.0, 1000.0, 1500.0, 4999.0, 5000.0, 10000.0]",40.075381,-76.319888
442,RippleBuds: Noise Blocking Earbuds with an In-Ear Microphone,Sound,USD,50000.0,750374.0,"San Francisco, CA",5834,"[297, 700, 424, 171, 300, 190, 310, 2864, 341, 144, 11, 2]","[69.0, 79.0, 89.0, 89.0, 99.0, 109.0, 109.0, 119.0, 229.0, 319.0, 1000.0, 10000.0]",37.621944,-122.381944
443,Infinity: Battlescape,Video Games,USD,300000.0,332620.0,"New York, NY",5828,"[87, 1429, 1000, 677, 336, 200, 360, 424, 200, 408, 129, 128, 47, 31, 251, 31, 15, 5, 1, 2, 0]","[5.0, 20.0, 23.0, 25.0, 35.0, 45.0, 55.0, 60.0, 75.0, 85.0, 100.0, 100.0, 150.0, 150.0, 250.0, 500.0, 500.0, 2500.0, 2500.0, 2500.0, 10000.0]",40.74838,-73.996705
444,"A better bicycle bell, made in the USA.",Product Design,USD,20000.0,331938.0,"San Francisco, CA",5827,"[86, 2151, 1580, 250, 1728]","[1.0, 35.0, 45.0, 55.0, 80.0]",37.621944,-122.381944
446,TYLT V\xdc Pulse for Pebble Time\u2122,Wearables,USD,100000.0,343749.0,"Los Angeles, CA",5814,"[997, 1169, 13, 1000, 65, 7, 100, 998, 41, 7, 999, 316, 37]","[39.0, 44.0, 49.0, 50.0, 54.0, 59.0, 60.0, 60.0, 65.0, 70.0, 70.0, 75.0, 80.0]",33.973093,-118.247896
